会社名称,路線名称,どこからどこまで,行き方面,帰り方面,バス停名称,url,緯度,経度,同じバス停
神奈川中央交通,厚３３,厚木バスセンター～七沢,七沢方面,厚木バスセンター方面,南毛利小学校前,https://mb.jorudan.co.jp//os/bus/1403/stop/61536.html,35.43632472,139.3387219,
神奈川中央交通,厚３３,厚木バスセンター～七沢,七沢方面,厚木バスセンター方面,厚木バスセンター,https://mb.jorudan.co.jp//os/bus/1403/stop/60495.html,35.441585,139.3666267,
神奈川中央交通,厚３８,厚木バスセンター～広沢寺温泉,広沢寺温泉方面,厚木バスセンター方面,広沢寺温泉,https://mb.jorudan.co.jp//os/bus/1403/stop/58852.html,35.45327417,139.2841656,
神奈川中央交通,厚３８,厚木バスセンター～広沢寺温泉,広沢寺温泉方面,厚木バスセンター方面,河鹿の沢,https://mb.jorudan.co.jp//os/bus/1403/stop/60211.html,35.45291778,139.2885228,
神奈川中央交通,厚３８,厚木バスセンター～広沢寺温泉,広沢寺温泉方面,厚木バスセンター方面,鐘ヶ獄,https://mb.jorudan.co.jp//os/bus/1403/stop/59832.html,35.45329278,139.2914208,
神奈川中央交通,厚３８,厚木バスセンター～広沢寺温泉,広沢寺温泉方面,厚木バスセンター方面,七沢病院前,https://mb.jorudan.co.jp//os/bus/1403/stop/58392.html,35.44793944,139.2943989,
神奈川中央交通,厚３８,厚木バスセンター～広沢寺温泉,広沢寺温泉方面,厚木バスセンター方面,七沢城跡,https://mb.jorudan.co.jp//os/bus/1403/stop/60557.html,35.44934778,139.2921422,
神奈川中央交通,厚３８,厚木バスセンター～広沢寺温泉,広沢寺温泉方面,厚木バスセンター方面,高旗観音,https://mb.jorudan.co.jp//os/bus/1403/stop/60285.html,35.44800972,139.2886156,
神奈川中央交通,厚３８,厚木バスセンター～広沢寺温泉,広沢寺温泉方面,厚木バスセンター方面,七沢温泉,https://mb.jorudan.co.jp//os/bus/1403/stop/58744.html,35.44792778,139.2877103,
神奈川中央交通,厚４３,森の里～厚木バスセンター,厚木バスセンター方面,森の里方面,中町四丁目,https://mb.jorudan.co.jp//os/bus/1403/stop/61597.html,35.43806278,139.3616589,
神奈川中央交通,厚４３,森の里～厚木バスセンター,厚木バスセンター方面,森の里方面,農大入口,https://mb.jorudan.co.jp//os/bus/1403/stop/229718.html,35.43068083,139.3524781,
神奈川中央交通,厚４３,森の里～厚木バスセンター,厚木バスセンター方面,森の里方面,船子,https://mb.jorudan.co.jp//os/bus/1403/stop/58746.html,35.42606639,139.3493594,
神奈川中央交通,厚４３,森の里～厚木バスセンター,厚木バスセンター方面,森の里方面,仲田,https://mb.jorudan.co.jp//os/bus/1403/stop/60647.html,35.42668694,139.3472978,
神奈川中央交通,厚４３,森の里～厚木バスセンター,厚木バスセンター方面,森の里方面,依胡田,https://mb.jorudan.co.jp//os/bus/1403/stop/58168.html,35.42793222,139.3418431,
神奈川中央交通,厚４３,森の里～厚木バスセンター,厚木バスセンター方面,森の里方面,柳町［厚木市］,https://mb.jorudan.co.jp//os/bus/1403/stop/229777.html,35.42875056,139.3377869,
神奈川中央交通,厚４３,森の里～厚木バスセンター,厚木バスセンター方面,森の里方面,仲町［厚木市長谷］,https://mb.jorudan.co.jp//os/bus/1403/stop/229865.html,35.42951833,139.3345111,
神奈川中央交通,厚４３,森の里～厚木バスセンター,厚木バスセンター方面,森の里方面,籠堰橋,https://mb.jorudan.co.jp//os/bus/1403/stop/60298.html,35.43165389,139.32792,
神奈川中央交通,厚４３,森の里～厚木バスセンター,厚木バスセンター方面,森の里方面,広町橋,https://mb.jorudan.co.jp//os/bus/1403/stop/58136.html,35.43309278,139.323315,
神奈川中央交通,厚４３,森の里～厚木バスセンター,厚木バスセンター方面,森の里方面,榎田,https://mb.jorudan.co.jp//os/bus/1403/stop/58479.html,35.43698778,139.3132058,
神奈川中央交通,厚４３,森の里～厚木バスセンター,厚木バスセンター方面,森の里方面,若宮橋,https://mb.jorudan.co.jp//os/bus/1403/stop/60439.html,35.44069389,139.311895,
神奈川中央交通,厚４３,森の里～厚木バスセンター,厚木バスセンター方面,森の里方面,森の里一丁目,https://mb.jorudan.co.jp//os/bus/1403/stop/61779.html,35.44094778,139.3075208,
神奈川中央交通,厚４３,森の里～厚木バスセンター,厚木バスセンター方面,森の里方面,森の里二丁目,https://mb.jorudan.co.jp//os/bus/1403/stop/60769.html,35.44203111,139.3059403,
神奈川中央交通,厚４３,森の里～厚木バスセンター,厚木バスセンター方面,森の里方面,森の里小学校前,https://mb.jorudan.co.jp//os/bus/1403/stop/61855.html,35.44518278,139.3052547,
神奈川中央交通,厚４３,森の里～厚木バスセンター,厚木バスセンター方面,森の里方面,森の里三丁目,https://mb.jorudan.co.jp//os/bus/1403/stop/60613.html,35.44642778,139.3049278,
神奈川中央交通,厚４３,森の里～厚木バスセンター,厚木バスセンター方面,森の里方面,森の里中学校前,https://mb.jorudan.co.jp//os/bus/1403/stop/60359.html,35.44897278,139.3038789,
神奈川中央交通,厚４３,森の里～厚木バスセンター,厚木バスセンター方面,森の里方面,北センター,https://mb.jorudan.co.jp//os/bus/1403/stop/229904.html,35.45267889,139.304335,
神奈川中央交通,厚４３,森の里～厚木バスセンター,厚木バスセンター方面,森の里方面,森の里五丁目,https://mb.jorudan.co.jp//os/bus/1403/stop/58352.html,35.45363194,139.3044919,
神奈川中央交通,厚４３,森の里～厚木バスセンター,厚木バスセンター方面,森の里方面,森の里,https://mb.jorudan.co.jp//os/bus/1403/stop/61100.html,35.45569583,139.3041808,
神奈川中央交通,厚４３,森の里～厚木バスセンター,森の里方面,厚木バスセンター方面,中町四丁目,https://mb.jorudan.co.jp//os/bus/1403/stop/60159.html,35.44054944,139.3637819,
神奈川中央交通,厚４３,森の里～厚木バスセンター,森の里方面,厚木バスセンター方面,厚木市文化会館前,https://mb.jorudan.co.jp//os/bus/1403/stop/61597.html,35.43806278,139.3616589,
神奈川中央交通,厚４３,森の里～厚木バスセンター,森の里方面,厚木バスセンター方面,恩名下,https://mb.jorudan.co.jp//os/bus/1403/stop/58192.html,35.43548778,139.3546819,
神奈川中央交通,厚４３,森の里～厚木バスセンター,森の里方面,厚木バスセンター方面,赤羽根入口,https://mb.jorudan.co.jp//os/bus/1403/stop/59750.html,35.43569,139.3528708,
神奈川中央交通,厚４３,森の里～厚木バスセンター,森の里方面,厚木バスセンター方面,農大入口,https://mb.jorudan.co.jp//os/bus/1403/stop/61551.html,35.43357444,139.3516769,
神奈川中央交通,厚４３,森の里～厚木バスセンター,森の里方面,厚木バスセンター方面,船子,https://mb.jorudan.co.jp//os/bus/1403/stop/229718.html,35.43068083,139.3524781,
神奈川中央交通,厚４３,森の里～厚木バスセンター,森の里方面,厚木バスセンター方面,仲田,https://mb.jorudan.co.jp//os/bus/1403/stop/58746.html,35.42606639,139.3493594,
神奈川中央交通,厚４３,森の里～厚木バスセンター,森の里方面,厚木バスセンター方面,依胡田,https://mb.jorudan.co.jp//os/bus/1403/stop/60647.html,35.42668694,139.3472978,
神奈川中央交通,厚４３,森の里～厚木バスセンター,森の里方面,厚木バスセンター方面,柳町［厚木市］,https://mb.jorudan.co.jp//os/bus/1403/stop/58168.html,35.42793222,139.3418431,
神奈川中央交通,厚４３,森の里～厚木バスセンター,森の里方面,厚木バスセンター方面,仲町［厚木市長谷］,https://mb.jorudan.co.jp//os/bus/1403/stop/229777.html,35.42875056,139.3377869,
神奈川中央交通,厚４３,森の里～厚木バスセンター,森の里方面,厚木バスセンター方面,籠堰橋,https://mb.jorudan.co.jp//os/bus/1403/stop/229865.html,35.42951833,139.3345111,
神奈川中央交通,厚４３,森の里～厚木バスセンター,森の里方面,厚木バスセンター方面,広町橋,https://mb.jorudan.co.jp//os/bus/1403/stop/60298.html,35.43165389,139.32792,
神奈川中央交通,厚４３,森の里～厚木バスセンター,森の里方面,厚木バスセンター方面,小野宮前,https://mb.jorudan.co.jp//os/bus/1403/stop/58136.html,35.43309278,139.323315,
神奈川中央交通,厚４３,森の里～厚木バスセンター,森の里方面,厚木バスセンター方面,小野橋,https://mb.jorudan.co.jp//os/bus/1403/stop/61649.html,35.43399889,139.3192458,
神奈川中央交通,厚４３,森の里～厚木バスセンター,森の里方面,厚木バスセンター方面,榎田,https://mb.jorudan.co.jp//os/bus/1403/stop/60051.html,35.43438778,139.3154939,
神奈川中央交通,厚４３,森の里～厚木バスセンター,森の里方面,厚木バスセンター方面,若宮橋,https://mb.jorudan.co.jp//os/bus/1403/stop/58479.html,35.43698778,139.3132058,
神奈川中央交通,厚４３,森の里～厚木バスセンター,森の里方面,厚木バスセンター方面,森の里一丁目,https://mb.jorudan.co.jp//os/bus/1403/stop/60439.html,35.44069389,139.311895,
神奈川中央交通,厚４３,森の里～厚木バスセンター,森の里方面,厚木バスセンター方面,森の里二丁目,https://mb.jorudan.co.jp//os/bus/1403/stop/61779.html,35.44094778,139.3075208,
神奈川中央交通,厚４３,森の里～厚木バスセンター,森の里方面,厚木バスセンター方面,森の里小学校前,https://mb.jorudan.co.jp//os/bus/1403/stop/60769.html,35.44203111,139.3059403,
神奈川中央交通,厚４３,森の里～厚木バスセンター,森の里方面,厚木バスセンター方面,森の里三丁目,https://mb.jorudan.co.jp//os/bus/1403/stop/61855.html,35.44518278,139.3052547,
神奈川中央交通,厚４３,森の里～厚木バスセンター,森の里方面,厚木バスセンター方面,森の里中学校前,https://mb.jorudan.co.jp//os/bus/1403/stop/60613.html,35.44642778,139.3049278,
神奈川中央交通,厚４３,森の里～厚木バスセンター,森の里方面,厚木バスセンター方面,北センター,https://mb.jorudan.co.jp//os/bus/1403/stop/60359.html,35.44897278,139.3038789,
神奈川中央交通,厚４３,森の里～厚木バスセンター,森の里方面,厚木バスセンター方面,森の里五丁目,https://mb.jorudan.co.jp//os/bus/1403/stop/229904.html,35.45267889,139.304335,
神奈川中央交通,厚４３,森の里～厚木バスセンター,森の里方面,厚木バスセンター方面,森の里,https://mb.jorudan.co.jp//os/bus/1403/stop/58352.html,35.45363194,139.3044919,
神奈川中央交通,厚４４,森の里～厚木バスセンター,厚木バスセンター方面,森の里方面,温水児童館前,https://mb.jorudan.co.jp//os/bus/1403/stop/60755.html,35.43951139,139.3464656,
神奈川中央交通,厚４４,森の里～厚木バスセンター,厚木バスセンター方面,森の里方面,やまゆり園前［厚木市］,https://mb.jorudan.co.jp//os/bus/1403/stop/229949.html,35.43971694,139.3241819,
神奈川中央交通,厚４４,森の里～厚木バスセンター,厚木バスセンター方面,森の里方面,宮地,https://mb.jorudan.co.jp//os/bus/1403/stop/61106.html,35.44427278,139.3262156,
神奈川中央交通,厚４４,森の里～厚木バスセンター,厚木バスセンター方面,森の里方面,高松山入口,https://mb.jorudan.co.jp//os/bus/1403/stop/58553.html,35.44430583,139.3256303,
神奈川中央交通,厚４４,森の里～厚木バスセンター,厚木バスセンター方面,森の里方面,森の里青山,https://mb.jorudan.co.jp//os/bus/1403/stop/61028.html,35.44674778,139.3138328,
神奈川中央交通,厚４４,森の里～厚木バスセンター,厚木バスセンター方面,森の里方面,日産先進技術開発センター前,https://mb.jorudan.co.jp//os/bus/1403/stop/58329.html,35.44411389,139.3164108,
神奈川中央交通,厚４４,森の里～厚木バスセンター,厚木バスセンター方面,森の里方面,通信研究所前,https://mb.jorudan.co.jp//os/bus/1403/stop/229912.html,35.44181083,139.3160828,
神奈川中央交通,厚４４,森の里～厚木バスセンター,厚木バスセンター方面,森の里方面,森の里センター,https://mb.jorudan.co.jp//os/bus/1403/stop/60601.html,35.44498417,139.3110325,
神奈川中央交通,厚４４,森の里～厚木バスセンター,厚木バスセンター方面,森の里方面,厚木西高校,https://mb.jorudan.co.jp//os/bus/1403/stop/58368.html,35.44787333,139.3111269,
神奈川中央交通,厚４４,森の里～厚木バスセンター,厚木バスセンター方面,森の里方面,森の里四丁目,https://mb.jorudan.co.jp//os/bus/1403/stop/58536.html,35.45076444,139.3080067,
神奈川中央交通,厚４４,森の里～厚木バスセンター,森の里方面,厚木バスセンター方面,栄町二丁目,https://mb.jorudan.co.jp//os/bus/1403/stop/61597.html,35.43806278,139.3616589,
神奈川中央交通,厚４４,森の里～厚木バスセンター,森の里方面,厚木バスセンター方面,恩名公民館前,https://mb.jorudan.co.jp//os/bus/1403/stop/58192.html,35.43548778,139.3546819,
神奈川中央交通,厚４４,森の里～厚木バスセンター,森の里方面,厚木バスセンター方面,赤羽根中央,https://mb.jorudan.co.jp//os/bus/1403/stop/61551.html,35.43357444,139.3516769,
神奈川中央交通,厚４４,森の里～厚木バスセンター,森の里方面,厚木バスセンター方面,温水児童館前,https://mb.jorudan.co.jp//os/bus/1403/stop/61018.html,35.43563694,139.3494769,
神奈川中央交通,厚４４,森の里～厚木バスセンター,森の里方面,厚木バスセンター方面,温水,https://mb.jorudan.co.jp//os/bus/1403/stop/60755.html,35.43951139,139.3464656,
神奈川中央交通,厚４４,森の里～厚木バスセンター,森の里方面,厚木バスセンター方面,高坪入口,https://mb.jorudan.co.jp//os/bus/1403/stop/60687.html,35.44006278,139.343695,
神奈川中央交通,厚４４,森の里～厚木バスセンター,森の里方面,厚木バスセンター方面,南毛利小学校前,https://mb.jorudan.co.jp//os/bus/1403/stop/59433.html,35.4386775,139.3424833,
神奈川中央交通,厚４４,森の里～厚木バスセンター,森の里方面,厚木バスセンター方面,清水［厚木市］,https://mb.jorudan.co.jp//os/bus/1403/stop/61536.html,35.43632472,139.3387219,
神奈川中央交通,厚４４,森の里～厚木バスセンター,森の里方面,厚木バスセンター方面,観音坂,https://mb.jorudan.co.jp//os/bus/1403/stop/230045.html,35.43373333,139.3367619,
神奈川中央交通,厚４４,森の里～厚木バスセンター,森の里方面,厚木バスセンター方面,上長谷,https://mb.jorudan.co.jp//os/bus/1403/stop/59265.html,35.43361833,139.3333342,
神奈川中央交通,厚４４,森の里～厚木バスセンター,森の里方面,厚木バスセンター方面,愛名入口,https://mb.jorudan.co.jp//os/bus/1403/stop/61399.html,35.43302583,139.3279769,
神奈川中央交通,厚４４,森の里～厚木バスセンター,森の里方面,厚木バスセンター方面,やまゆり園前［厚木市］,https://mb.jorudan.co.jp//os/bus/1403/stop/58756.html,35.43510778,139.3246539,
神奈川中央交通,厚４４,森の里～厚木バスセンター,森の里方面,厚木バスセンター方面,宮地,https://mb.jorudan.co.jp//os/bus/1403/stop/229949.html,35.43971694,139.3241819,
神奈川中央交通,厚４４,森の里～厚木バスセンター,森の里方面,厚木バスセンター方面,高松山入口,https://mb.jorudan.co.jp//os/bus/1403/stop/61106.html,35.44427278,139.3262156,
神奈川中央交通,厚４４,森の里～厚木バスセンター,森の里方面,厚木バスセンター方面,森の里青山,https://mb.jorudan.co.jp//os/bus/1403/stop/58553.html,35.44430583,139.3256303,
神奈川中央交通,厚４４,森の里～厚木バスセンター,森の里方面,厚木バスセンター方面,日産先進技術開発センター前,https://mb.jorudan.co.jp//os/bus/1403/stop/61028.html,35.44674778,139.3138328,
神奈川中央交通,厚４４,森の里～厚木バスセンター,森の里方面,厚木バスセンター方面,通信研究所前,https://mb.jorudan.co.jp//os/bus/1403/stop/58329.html,35.44411389,139.3164108,
神奈川中央交通,厚４４,森の里～厚木バスセンター,森の里方面,厚木バスセンター方面,森の里センター,https://mb.jorudan.co.jp//os/bus/1403/stop/229912.html,35.44181083,139.3160828,
神奈川中央交通,厚４４,森の里～厚木バスセンター,森の里方面,厚木バスセンター方面,厚木西高校,https://mb.jorudan.co.jp//os/bus/1403/stop/60601.html,35.44498417,139.3110325,
神奈川中央交通,厚４４,森の里～厚木バスセンター,森の里方面,厚木バスセンター方面,森の里四丁目,https://mb.jorudan.co.jp//os/bus/1403/stop/58368.html,35.44787333,139.3111269,
神奈川中央交通,厚４４,森の里～厚木バスセンター,森の里方面,厚木バスセンター方面,森の里五丁目,https://mb.jorudan.co.jp//os/bus/1403/stop/58536.html,35.45076444,139.3080067,
神奈川中央交通,厚４４,森の里～厚木バスセンター,森の里方面,厚木バスセンター方面,栄町二丁目,https://mb.jorudan.co.jp//os/bus/1403/stop/60159.html,35.44054944,139.3637819,
神奈川中央交通,厚４４,森の里～厚木バスセンター,森の里方面,厚木バスセンター方面,恩名公民館前,https://mb.jorudan.co.jp//os/bus/1403/stop/61597.html,35.43806278,139.3616589,
神奈川中央交通,厚４４,森の里～厚木バスセンター,森の里方面,厚木バスセンター方面,赤羽根入口,https://mb.jorudan.co.jp//os/bus/1403/stop/58192.html,35.43548778,139.3546819,
神奈川中央交通,厚４４,森の里～厚木バスセンター,森の里方面,厚木バスセンター方面,赤羽根中央,https://mb.jorudan.co.jp//os/bus/1403/stop/59750.html,35.43569,139.3528708,
神奈川中央交通,厚４４,森の里～厚木バスセンター,森の里方面,厚木バスセンター方面,温水児童館前,https://mb.jorudan.co.jp//os/bus/1403/stop/61551.html,35.43357444,139.3516769,
神奈川中央交通,厚４４,森の里～厚木バスセンター,森の里方面,厚木バスセンター方面,温水,https://mb.jorudan.co.jp//os/bus/1403/stop/61018.html,35.43563694,139.3494769,
神奈川中央交通,厚４４,森の里～厚木バスセンター,森の里方面,厚木バスセンター方面,高坪入口,https://mb.jorudan.co.jp//os/bus/1403/stop/60755.html,35.43951139,139.3464656,
神奈川中央交通,厚４４,森の里～厚木バスセンター,森の里方面,厚木バスセンター方面,南毛利小学校前,https://mb.jorudan.co.jp//os/bus/1403/stop/60687.html,35.44006278,139.343695,
神奈川中央交通,厚４４,森の里～厚木バスセンター,森の里方面,厚木バスセンター方面,清水［厚木市］,https://mb.jorudan.co.jp//os/bus/1403/stop/59433.html,35.4386775,139.3424833,
神奈川中央交通,厚４４,森の里～厚木バスセンター,森の里方面,厚木バスセンター方面,観音坂,https://mb.jorudan.co.jp//os/bus/1403/stop/61536.html,35.43632472,139.3387219,
神奈川中央交通,厚４４,森の里～厚木バスセンター,森の里方面,厚木バスセンター方面,上長谷,https://mb.jorudan.co.jp//os/bus/1403/stop/230045.html,35.43373333,139.3367619,
神奈川中央交通,厚４４,森の里～厚木バスセンター,森の里方面,厚木バスセンター方面,愛名入口,https://mb.jorudan.co.jp//os/bus/1403/stop/59265.html,35.43361833,139.3333342,
神奈川中央交通,厚４４,森の里～厚木バスセンター,森の里方面,厚木バスセンター方面,やまゆり園前［厚木市］,https://mb.jorudan.co.jp//os/bus/1403/stop/61399.html,35.43302583,139.3279769,
神奈川中央交通,厚４４,森の里～厚木バスセンター,森の里方面,厚木バスセンター方面,宮地,https://mb.jorudan.co.jp//os/bus/1403/stop/58756.html,35.43510778,139.3246539,
神奈川中央交通,厚４４,森の里～厚木バスセンター,森の里方面,厚木バスセンター方面,高松山入口,https://mb.jorudan.co.jp//os/bus/1403/stop/229949.html,35.43971694,139.3241819,
神奈川中央交通,厚４４,森の里～厚木バスセンター,森の里方面,厚木バスセンター方面,森の里青山,https://mb.jorudan.co.jp//os/bus/1403/stop/61106.html,35.44427278,139.3262156,
神奈川中央交通,厚４４,森の里～厚木バスセンター,森の里方面,厚木バスセンター方面,日産先進技術開発センター前,https://mb.jorudan.co.jp//os/bus/1403/stop/58553.html,35.44430583,139.3256303,
神奈川中央交通,厚４４,森の里～厚木バスセンター,森の里方面,厚木バスセンター方面,通信研究所前,https://mb.jorudan.co.jp//os/bus/1403/stop/61028.html,35.44674778,139.3138328,
神奈川中央交通,厚４４,森の里～厚木バスセンター,森の里方面,厚木バスセンター方面,森の里センター,https://mb.jorudan.co.jp//os/bus/1403/stop/58329.html,35.44411389,139.3164108,
神奈川中央交通,厚４４,森の里～厚木バスセンター,森の里方面,厚木バスセンター方面,厚木西高校,https://mb.jorudan.co.jp//os/bus/1403/stop/229912.html,35.44181083,139.3160828,
神奈川中央交通,厚４４,森の里～厚木バスセンター,森の里方面,厚木バスセンター方面,森の里四丁目,https://mb.jorudan.co.jp//os/bus/1403/stop/60601.html,35.44498417,139.3110325,
神奈川中央交通,厚４４,森の里～厚木バスセンター,森の里方面,厚木バスセンター方面,森の里五丁目,https://mb.jorudan.co.jp//os/bus/1403/stop/58368.html,35.44787333,139.3111269,
神奈川中央交通,厚４４,森の里～厚木バスセンター,森の里方面,厚木バスセンター方面,森の里,https://mb.jorudan.co.jp//os/bus/1403/stop/58536.html,35.45076444,139.3080067,
神奈川中央交通,厚４５,厚木バスセンター～森の里,森の里方面,厚木バスセンター方面,森の里,https://mb.jorudan.co.jp//os/bus/1403/stop/61100.html,None,None,
神奈川中央交通,厚４７,厚木バスセンター～上分,上分方面,厚木バスセンター方面,毛利台入口,https://mb.jorudan.co.jp//os/bus/1403/stop/61747.html,35.445065,139.3305686,
神奈川中央交通,厚４７,厚木バスセンター～上分,上分方面,厚木バスセンター方面,毛利台一丁目,https://mb.jorudan.co.jp//os/bus/1403/stop/60994.html,35.44313389,139.3317908,
神奈川中央交通,厚４７,厚木バスセンター～上分,上分方面,厚木バスセンター方面,毛利台団地,https://mb.jorudan.co.jp//os/bus/1403/stop/58280.html,35.43958389,139.3283369,
神奈川中央交通,厚５５,田村車庫～本厚木駅南口,本厚木駅南口方面,田村車庫方面,本厚木駅南口,https://mb.jorudan.co.jp//os/bus/1403/stop/60012.html,35.43922333,139.3649494,
神奈川中央交通,厚５５,田村車庫～本厚木駅南口,本厚木駅南口方面,田村車庫方面,旭町［厚木市］,https://mb.jorudan.co.jp//os/bus/1403/stop/229778.html,35.43757667,139.3701119,
神奈川中央交通,厚５５,田村車庫～本厚木駅南口,本厚木駅南口方面,田村車庫方面,下宿［厚木市］,https://mb.jorudan.co.jp//os/bus/1403/stop/229942.html,35.43451944,139.3675508,
神奈川中央交通,厚５５,田村車庫～本厚木駅南口,本厚木駅南口方面,田村車庫方面,富士見町［厚木市］,https://mb.jorudan.co.jp//os/bus/1403/stop/229659.html,35.43152833,139.3678536,
神奈川中央交通,厚５５,田村車庫～本厚木駅南口,本厚木駅南口方面,田村車庫方面,岡田一本杉,https://mb.jorudan.co.jp//os/bus/1403/stop/60645.html,35.4288325,139.3691114,
神奈川中央交通,厚５５,田村車庫～本厚木駅南口,本厚木駅南口方面,田村車庫方面,岡田［厚木市］,https://mb.jorudan.co.jp//os/bus/1403/stop/229955.html,35.42494222,139.3687161,
神奈川中央交通,厚５５,田村車庫～本厚木駅南口,本厚木駅南口方面,田村車庫方面,下岡田,https://mb.jorudan.co.jp//os/bus/1403/stop/60640.html,35.41989778,139.3659,
神奈川中央交通,厚５５,田村車庫～本厚木駅南口,本厚木駅南口方面,田村車庫方面,リバーサイド前,https://mb.jorudan.co.jp//os/bus/1403/stop/60691.html,35.41820778,139.3654858,
神奈川中央交通,厚５５,田村車庫～本厚木駅南口,本厚木駅南口方面,田村車庫方面,酒井,https://mb.jorudan.co.jp//os/bus/1403/stop/58714.html,35.41651333,139.3653003,
神奈川中央交通,厚５５,田村車庫～本厚木駅南口,本厚木駅南口方面,田村車庫方面,下酒井,https://mb.jorudan.co.jp//os/bus/1403/stop/61464.html,35.41273389,139.3647008,
神奈川中央交通,厚５５,田村車庫～本厚木駅南口,本厚木駅南口方面,田村車庫方面,愛坪,https://mb.jorudan.co.jp//os/bus/1403/stop/58770.html,35.40969694,139.3644528,
神奈川中央交通,厚５５,田村車庫～本厚木駅南口,本厚木駅南口方面,田村車庫方面,相川中学校前,https://mb.jorudan.co.jp//os/bus/1403/stop/58833.html,35.40681889,139.3665269,
神奈川中央交通,厚５５,田村車庫～本厚木駅南口,本厚木駅南口方面,田村車庫方面,戸田,https://mb.jorudan.co.jp//os/bus/1403/stop/61149.html,35.40404611,139.3666953,
神奈川中央交通,厚５５,田村車庫～本厚木駅南口,本厚木駅南口方面,田村車庫方面,中戸田,https://mb.jorudan.co.jp//os/bus/1403/stop/61522.html,35.40131389,139.3669092,
神奈川中央交通,厚５５,田村車庫～本厚木駅南口,本厚木駅南口方面,田村車庫方面,下戸田,https://mb.jorudan.co.jp//os/bus/1403/stop/61388.html,35.39646861,139.3703925,
神奈川中央交通,厚５５,田村車庫～本厚木駅南口,本厚木駅南口方面,田村車庫方面,大神,https://mb.jorudan.co.jp//os/bus/1403/stop/59817.html,35.39333389,139.3704064,
神奈川中央交通,厚５５,田村車庫～本厚木駅南口,本厚木駅南口方面,田村車庫方面,真芳寺,https://mb.jorudan.co.jp//os/bus/1403/stop/58965.html,35.38869194,139.3692711,
神奈川中央交通,厚５５,田村車庫～本厚木駅南口,本厚木駅南口方面,田村車庫方面,寄木神社前,https://mb.jorudan.co.jp//os/bus/1403/stop/59105.html,35.38658833,139.3665056,
神奈川中央交通,厚５５,田村車庫～本厚木駅南口,本厚木駅南口方面,田村車庫方面,柳の内,https://mb.jorudan.co.jp//os/bus/1403/stop/60781.html,35.38290583,139.3649878,
神奈川中央交通,厚５５,田村車庫～本厚木駅南口,本厚木駅南口方面,田村車庫方面,農協神田支所前,https://mb.jorudan.co.jp//os/bus/1403/stop/229692.html,35.380105,139.3647983,
神奈川中央交通,厚５５,田村車庫～本厚木駅南口,本厚木駅南口方面,田村車庫方面,相模神田,https://mb.jorudan.co.jp//os/bus/1403/stop/59001.html,35.37556306,139.3649994,
神奈川中央交通,厚５５,田村車庫～本厚木駅南口,本厚木駅南口方面,田村車庫方面,神田小学校前,https://mb.jorudan.co.jp//os/bus/1403/stop/59420.html,35.37581944,139.3622661,
神奈川中央交通,厚５５,田村車庫～本厚木駅南口,本厚木駅南口方面,田村車庫方面,田村車庫,https://mb.jorudan.co.jp//os/bus/1403/stop/58879.html,35.37611111,139.3584967,
神奈川中央交通,厚５９,厚木バスセンター～半原,半原方面,厚木バスセンター方面,中学校前［愛川］,https://mb.jorudan.co.jp//os/bus/1403/stop/230131.html,35.53137944,139.2877972,
神奈川中央交通,厚５９,厚木バスセンター～半原,半原方面,厚木バスセンター方面,上野原［愛川町］,https://mb.jorudan.co.jp//os/bus/1403/stop/229675.html,35.53075444,139.2915008,
神奈川中央交通,厚５９,厚木バスセンター～半原,半原方面,厚木バスセンター方面,上志田,https://mb.jorudan.co.jp//os/bus/1403/stop/59851.html,35.53409889,139.2920467,
神奈川中央交通,厚５９,厚木バスセンター～半原,半原方面,厚木バスセンター方面,中原［愛川町］,https://mb.jorudan.co.jp//os/bus/1403/stop/230177.html,35.53645222,139.2978056,
神奈川中央交通,厚５９,厚木バスセンター～半原,半原方面,厚木バスセンター方面,中央養鶏前,https://mb.jorudan.co.jp//os/bus/1403/stop/58299.html,35.53685472,139.3008306,
神奈川中央交通,厚５９,厚木バスセンター～半原,半原方面,厚木バスセンター方面,三増,https://mb.jorudan.co.jp//os/bus/1403/stop/61677.html,35.53948389,139.3047878,
神奈川中央交通,厚５９,厚木バスセンター～半原,半原方面,厚木バスセンター方面,三増下宿,https://mb.jorudan.co.jp//os/bus/1403/stop/61059.html,35.53753583,139.3066089,
神奈川中央交通,厚５９,厚木バスセンター～半原,半原方面,厚木バスセンター方面,愛川ハイテク団地入口,https://mb.jorudan.co.jp//os/bus/1403/stop/58409.html,35.53582417,139.3091033,
神奈川中央交通,厚５９,厚木バスセンター～半原,半原方面,厚木バスセンター方面,高峰小学校前,https://mb.jorudan.co.jp//os/bus/1403/stop/59492.html,35.53381194,139.3127739,
神奈川中央交通,厚５９,厚木バスセンター～半原,半原方面,厚木バスセンター方面,愛川高校前,https://mb.jorudan.co.jp//os/bus/1403/stop/59766.html,35.53200472,139.3156981,
神奈川中央交通,厚５９,厚木バスセンター～半原,半原方面,厚木バスセンター方面,箕輪辻,https://mb.jorudan.co.jp//os/bus/1403/stop/60635.html,35.53044722,139.3185725,
神奈川中央交通,厚５９,厚木バスセンター～半原,半原方面,厚木バスセンター方面,愛川町役場,https://mb.jorudan.co.jp//os/bus/1403/stop/58715.html,35.52873944,139.3210892,
神奈川中央交通,厚５９,厚木バスセンター～半原,半原方面,厚木バスセンター方面,箕輪［愛川町］,https://mb.jorudan.co.jp//os/bus/1403/stop/229625.html,35.52625889,139.3233217,
神奈川中央交通,厚５９,厚木バスセンター～半原,半原方面,厚木バスセンター方面,東中学校前［愛川町］,https://mb.jorudan.co.jp//os/bus/1403/stop/229653.html,35.52321778,139.3275814,
神奈川中央交通,厚５９,厚木バスセンター～半原,半原方面,厚木バスセンター方面,中津,https://mb.jorudan.co.jp//os/bus/1403/stop/61774.html,35.51928861,139.3313169,
神奈川中央交通,厚５９,厚木バスセンター～半原,半原方面,厚木バスセンター方面,局前［愛川町］,https://mb.jorudan.co.jp//os/bus/1403/stop/229833.html,35.51703444,139.3332919,
神奈川中央交通,厚５９,厚木バスセンター～半原,半原方面,厚木バスセンター方面,一本松［愛川町］,https://mb.jorudan.co.jp//os/bus/1403/stop/230048.html,35.51392222,139.3366356,
神奈川中央交通,厚５９,厚木バスセンター～半原,半原方面,厚木バスセンター方面,運輸支局入口,https://mb.jorudan.co.jp//os/bus/1403/stop/229647.html,35.50985778,139.3389208,
神奈川中央交通,厚５９,厚木バスセンター～半原,半原方面,厚木バスセンター方面,桜台［愛川町］,https://mb.jorudan.co.jp//os/bus/1403/stop/230114.html,35.50682889,139.3399133,
神奈川中央交通,厚５９,厚木バスセンター～半原,半原方面,厚木バスセンター方面,坂本入口,https://mb.jorudan.co.jp//os/bus/1403/stop/60038.html,35.50575917,139.3457881,
神奈川中央交通,厚５９,厚木バスセンター～半原,半原方面,厚木バスセンター方面,六本松［厚木市］,https://mb.jorudan.co.jp//os/bus/1403/stop/230243.html,35.50375222,139.3517628,
神奈川中央交通,厚５９,厚木バスセンター～半原,半原方面,厚木バスセンター方面,中荻原,https://mb.jorudan.co.jp//os/bus/1403/stop/60209.html,35.50190694,139.3562406,
神奈川中央交通,厚５９,厚木バスセンター～半原,半原方面,厚木バスセンター方面,中平［厚木市］,https://mb.jorudan.co.jp//os/bus/1403/stop/229687.html,35.49671333,139.3627319,
神奈川中央交通,厚５９,厚木バスセンター～半原,半原方面,厚木バスセンター方面,依知小学校前,https://mb.jorudan.co.jp//os/bus/1403/stop/58979.html,35.490335,139.3644089,
神奈川中央交通,厚５９,厚木バスセンター～半原,半原方面,厚木バスセンター方面,関口,https://mb.jorudan.co.jp//os/bus/1403/stop/61352.html,35.48468778,139.3653158,
神奈川中央交通,厚５９,厚木バスセンター～半原,半原方面,厚木バスセンター方面,蓮生寺［厚木市］,https://mb.jorudan.co.jp//os/bus/1403/stop/230068.html,35.48077389,139.3657489,
神奈川中央交通,厚５９,厚木バスセンター～半原,半原方面,厚木バスセンター方面,追分［厚木市］,https://mb.jorudan.co.jp//os/bus/1403/stop/229652.html,35.47556167,139.3671508,
神奈川中央交通,厚５９,厚木バスセンター～半原,半原方面,厚木バスセンター方面,下依知入口,https://mb.jorudan.co.jp//os/bus/1403/stop/60333.html,35.47072778,139.3677619,
神奈川中央交通,厚５９,厚木バスセンター～半原,半原方面,厚木バスセンター方面,金田神社前,https://mb.jorudan.co.jp//os/bus/1403/stop/59488.html,35.46644389,139.3680369,
神奈川中央交通,厚５９,厚木バスセンター～半原,半原方面,厚木バスセンター方面,金田,https://mb.jorudan.co.jp//os/bus/1403/stop/60790.html,35.46381,139.3679769,
神奈川中央交通,厚５９,厚木バスセンター～半原,半原方面,厚木バスセンター方面,金田下宿,https://mb.jorudan.co.jp//os/bus/1403/stop/60455.html,35.46020333,139.3677042,
神奈川中央交通,厚５９,厚木バスセンター～半原,半原方面,厚木バスセンター方面,東洋ソフラン前,https://mb.jorudan.co.jp//os/bus/1403/stop/60716.html,35.45427972,139.3689678,
神奈川中央交通,厚５９,厚木バスセンター～半原,半原方面,厚木バスセンター方面,鮎津橋,https://mb.jorudan.co.jp//os/bus/1403/stop/61463.html,35.451535,139.36585,
神奈川中央交通,厚５９,厚木バスセンター～半原,半原方面,厚木バスセンター方面,厚木バスセンター,https://mb.jorudan.co.jp//os/bus/1403/stop/60495.html,35.44120056,139.3664267,
神奈川中央交通,厚５９,厚木バスセンター～半原,本厚木駅方面,半原方面,本厚木駅,https://mb.jorudan.co.jp//os/bus/1403/stop/60495.html,35.44120056,139.3664267,
神奈川中央交通,厚６０,厚木バスセンター～上三増,上三増方面,厚木バスセンター方面,上三増,https://mb.jorudan.co.jp//os/bus/1403/stop/60527.html,35.54632611,139.2992792,
神奈川中央交通,厚６０,厚木バスセンター～上三増,上三増方面,厚木バスセンター方面,中里遊園地前,https://mb.jorudan.co.jp//os/bus/1403/stop/60457.html,35.54233778,139.2998419,
神奈川中央交通,厚６１,厚木バスセンター～春日台団地,春日台団地方面,厚木バスセンター方面,春日台団地,https://mb.jorudan.co.jp//os/bus/1403/stop/60965.html,35.52772,139.33085,
神奈川中央交通,厚６１,厚木バスセンター～春日台団地,春日台団地方面,厚木バスセンター方面,春日台三丁目,https://mb.jorudan.co.jp//os/bus/1403/stop/61557.html,35.52657389,139.3331669,
神奈川中央交通,厚６１,厚木バスセンター～春日台団地,春日台団地方面,厚木バスセンター方面,春日台一丁目,https://mb.jorudan.co.jp//os/bus/1403/stop/59922.html,35.52490889,139.3364339,
神奈川中央交通,厚６１,厚木バスセンター～春日台団地,春日台団地方面,厚木バスセンター方面,春日台入口,https://mb.jorudan.co.jp//os/bus/1403/stop/60000.html,35.52356278,139.339705,
神奈川中央交通,厚６１,厚木バスセンター～春日台団地,春日台団地方面,厚木バスセンター方面,西四丁目,https://mb.jorudan.co.jp//os/bus/1403/stop/59946.html,35.51891028,139.3420767,
神奈川中央交通,厚６１,厚木バスセンター～春日台団地,春日台団地方面,厚木バスセンター方面,西三丁目,https://mb.jorudan.co.jp//os/bus/1403/stop/61540.html,35.51777667,139.3426472,
神奈川中央交通,厚６１,厚木バスセンター～春日台団地,春日台団地方面,厚木バスセンター方面,西二丁目,https://mb.jorudan.co.jp//os/bus/1403/stop/60545.html,35.51339472,139.3442606,
神奈川中央交通,厚６１,厚木バスセンター～春日台団地,春日台団地方面,厚木バスセンター方面,西一丁目,https://mb.jorudan.co.jp//os/bus/1403/stop/61072.html,35.50806694,139.3472469,
神奈川中央交通,厚６１,厚木バスセンター～春日台団地,春日台団地方面,厚木バスセンター方面,南中央通り,https://mb.jorudan.co.jp//os/bus/1403/stop/59782.html,35.50858583,139.3500108,
神奈川中央交通,厚６１,厚木バスセンター～春日台団地,春日台団地方面,厚木バスセンター方面,東一丁目,https://mb.jorudan.co.jp//os/bus/1403/stop/60727.html,35.50966778,139.3544808,
神奈川中央交通,厚６１,厚木バスセンター～春日台団地,春日台団地方面,厚木バスセンター方面,団地入口［厚木市］,https://mb.jorudan.co.jp//os/bus/1403/stop/229881.html,35.51037889,139.3568239,
神奈川中央交通,厚６１,厚木バスセンター～春日台団地,春日台団地方面,厚木バスセンター方面,藤塚,https://mb.jorudan.co.jp//os/bus/1403/stop/60919.html,35.50968944,139.3608611,
神奈川中央交通,厚６１,厚木バスセンター～春日台団地,春日台団地方面,厚木バスセンター方面,山際,https://mb.jorudan.co.jp//os/bus/1403/stop/58640.html,35.503925,139.3611478,
神奈川中央交通,厚６１：深夜,本厚木駅～春日台団地,春日台団地方面,本厚木駅方面,本厚木駅,https://mb.jorudan.co.jp//os/bus/1403/stop/60159.html,35.44024833,139.3645486,
神奈川中央交通,厚６１：深夜,本厚木駅～春日台団地,春日台団地方面,本厚木駅方面,春日台団地,https://mb.jorudan.co.jp//os/bus/1403/stop/60965.html,None,None,
神奈川中央交通,厚６２,厚木バスセンター～南中央通り,厚木バスセンター方面,厚木バスセンター方面,東二丁目,https://mb.jorudan.co.jp//os/bus/1403/stop/60115.html,35.51494,139.3531439,
神奈川中央交通,厚６２,厚木バスセンター～南中央通り,厚木バスセンター方面,厚木バスセンター方面,東三丁目,https://mb.jorudan.co.jp//os/bus/1403/stop/61509.html,35.51825056,139.3519503,
神奈川中央交通,厚６２,厚木バスセンター～南中央通り,厚木バスセンター方面,厚木バスセンター方面,東四丁目,https://mb.jorudan.co.jp//os/bus/1403/stop/61580.html,35.52158972,139.3507408,
神奈川中央交通,厚６２,厚木バスセンター～南中央通り,厚木バスセンター方面,厚木バスセンター方面,上六倉,https://mb.jorudan.co.jp//os/bus/1403/stop/59055.html,35.52318833,139.3488589,
神奈川中央交通,厚６２,厚木バスセンター～南中央通り,厚木バスセンター方面,厚木バスセンター方面,諏訪東,https://mb.jorudan.co.jp//os/bus/1403/stop/58853.html,35.5229975,139.3451267,
神奈川中央交通,厚６２,厚木バスセンター～南中央通り,厚木バスセンター方面,厚木バスセンター方面,一号公園前,https://mb.jorudan.co.jp//os/bus/1403/stop/61672.html,35.52362694,139.3425969,
神奈川中央交通,厚６３,厚木バスセンター～愛川バスセンター,愛川バスセンター方面,厚木バスセンター方面,愛川バスセンター,https://mb.jorudan.co.jp//os/bus/1403/stop/60514.html,35.5297975,139.3202553,
神奈川中央交通,厚６３,厚木バスセンター～愛川バスセンター,愛川バスセンター方面,厚木バスセンター方面,愛川高校入口,https://mb.jorudan.co.jp//os/bus/1403/stop/58587.html,35.53229778,139.3218969,
神奈川中央交通,厚６３,厚木バスセンター～愛川バスセンター,愛川バスセンター方面,厚木バスセンター方面,文化会館入口［愛川町］,https://mb.jorudan.co.jp//os/bus/1403/stop/229998.html,35.53085083,139.3255158,
神奈川中央交通,厚６４,厚木バスセンター～愛川バスセンター,愛川バスセンター方面,厚木バスセンター方面,愛川バスセンター,https://mb.jorudan.co.jp//os/bus/1403/stop/60514.html,None,None,
神奈川中央交通,厚６６,厚木バスセンター～愛川バスセンター,愛川バスセンター方面,厚木バスセンター方面,坂本［愛川町］,https://mb.jorudan.co.jp//os/bus/1403/stop/230061.html,35.50293222,139.3405147,
神奈川中央交通,厚６６,厚木バスセンター～愛川バスセンター,愛川バスセンター方面,厚木バスセンター方面,上三田,https://mb.jorudan.co.jp//os/bus/1403/stop/60065.html,35.49055333,139.3460022,
神奈川中央交通,厚６６,厚木バスセンター～愛川バスセンター,愛川バスセンター方面,厚木バスセンター方面,十軒村,https://mb.jorudan.co.jp//os/bus/1403/stop/58577.html,35.48647833,139.3478719,
神奈川中央交通,厚６６,厚木バスセンター～愛川バスセンター,愛川バスセンター方面,厚木バスセンター方面,睦合北公民館前,https://mb.jorudan.co.jp//os/bus/1403/stop/60171.html,35.48310944,139.3515206,
神奈川中央交通,厚６６,厚木バスセンター～愛川バスセンター,愛川バスセンター方面,厚木バスセンター方面,清源院前,https://mb.jorudan.co.jp//os/bus/1403/stop/58851.html,35.48023278,139.351265,
神奈川中央交通,厚６６,厚木バスセンター～愛川バスセンター,愛川バスセンター方面,厚木バスセンター方面,山王坂下,https://mb.jorudan.co.jp//os/bus/1403/stop/59456.html,35.47707694,139.3519708,
神奈川中央交通,厚６７,厚木バスセンター～神奈川工科大学,神奈川工科大学方面,厚木バスセンター方面,神奈川工科大学,https://mb.jorudan.co.jp//os/bus/1403/stop/59474.html,35.48543611,139.3410578,
神奈川中央交通,厚６７：ツインライナー,神奈川工科大学～厚木バスセンター,神奈川工科大学方面,厚木バスセンター方面,神奈川工科大学,https://mb.jorudan.co.jp//os/bus/1403/stop/60159.html,35.44054944,139.3637819,
神奈川中央交通,厚７４,厚木バスセンター～長坂［厚木市］,長坂［厚木市］方面,厚木バスセンター方面,長坂［厚木市］,https://mb.jorudan.co.jp//os/bus/1403/stop/229693.html,35.52322389,139.3515897,
神奈川中央交通,厚７４,厚木バスセンター～長坂［厚木市］,長坂［厚木市］方面,厚木バスセンター方面,長坂下,https://mb.jorudan.co.jp//os/bus/1403/stop/60977.html,35.518375,139.3566378,
神奈川中央交通,厚７４,厚木バスセンター～長坂［厚木市］,長坂［厚木市］方面,厚木バスセンター方面,上依知中央,https://mb.jorudan.co.jp//os/bus/1403/stop/58442.html,35.51685583,139.3620458,
神奈川中央交通,厚７４,厚木バスセンター～長坂［厚木市］,長坂［厚木市］方面,厚木バスセンター方面,上依知,https://mb.jorudan.co.jp//os/bus/1403/stop/61481.html,35.51505,139.3647639,
神奈川中央交通,厚７４,厚木バスセンター～長坂［厚木市］,厚木バスセンター方面,長坂［厚木市］方面,長坂下,https://mb.jorudan.co.jp//os/bus/1403/stop/61580.html,35.52158972,139.3507408,
神奈川中央交通,厚７４,厚木バスセンター～長坂［厚木市］,厚木バスセンター方面,長坂［厚木市］方面,上依知中央,https://mb.jorudan.co.jp//os/bus/1403/stop/60977.html,35.518375,139.3566378,
神奈川中央交通,厚７４,厚木バスセンター～長坂［厚木市］,厚木バスセンター方面,長坂［厚木市］方面,上依知,https://mb.jorudan.co.jp//os/bus/1403/stop/58442.html,35.51685583,139.3620458,
神奈川中央交通,厚７４,厚木バスセンター～長坂［厚木市］,厚木バスセンター方面,長坂［厚木市］方面,藤塚,https://mb.jorudan.co.jp//os/bus/1403/stop/61481.html,35.51505,139.3647639,
神奈川中央交通,厚７４,厚木バスセンター～長坂［厚木市］,厚木バスセンター方面,長坂［厚木市］方面,山際,https://mb.jorudan.co.jp//os/bus/1403/stop/60919.html,35.50968944,139.3608611,
神奈川中央交通,厚７４,厚木バスセンター～長坂［厚木市］,厚木バスセンター方面,長坂［厚木市］方面,中平［厚木市］,https://mb.jorudan.co.jp//os/bus/1403/stop/58640.html,35.503925,139.3611478,
神奈川中央交通,厚７４,厚木バスセンター～長坂［厚木市］,厚木バスセンター方面,長坂［厚木市］方面,依知小学校前,https://mb.jorudan.co.jp//os/bus/1403/stop/229687.html,35.49671333,139.3627319,
神奈川中央交通,厚７４,厚木バスセンター～長坂［厚木市］,厚木バスセンター方面,長坂［厚木市］方面,関口,https://mb.jorudan.co.jp//os/bus/1403/stop/58979.html,35.490335,139.3644089,
神奈川中央交通,厚７４,厚木バスセンター～長坂［厚木市］,厚木バスセンター方面,長坂［厚木市］方面,蓮生寺［厚木市］,https://mb.jorudan.co.jp//os/bus/1403/stop/61352.html,35.48468778,139.3653158,
神奈川中央交通,厚７４,厚木バスセンター～長坂［厚木市］,厚木バスセンター方面,長坂［厚木市］方面,追分［厚木市］,https://mb.jorudan.co.jp//os/bus/1403/stop/230068.html,35.48077389,139.3657489,
神奈川中央交通,厚７４,厚木バスセンター～長坂［厚木市］,厚木バスセンター方面,長坂［厚木市］方面,下依知入口,https://mb.jorudan.co.jp//os/bus/1403/stop/229652.html,35.47556167,139.3671508,
神奈川中央交通,厚７４,厚木バスセンター～長坂［厚木市］,厚木バスセンター方面,長坂［厚木市］方面,金田神社前,https://mb.jorudan.co.jp//os/bus/1403/stop/60333.html,35.47072778,139.3677619,
神奈川中央交通,厚７４,厚木バスセンター～長坂［厚木市］,厚木バスセンター方面,長坂［厚木市］方面,金田,https://mb.jorudan.co.jp//os/bus/1403/stop/59488.html,35.46644389,139.3680369,
神奈川中央交通,厚７４,厚木バスセンター～長坂［厚木市］,厚木バスセンター方面,長坂［厚木市］方面,金田下宿,https://mb.jorudan.co.jp//os/bus/1403/stop/60790.html,35.46381,139.3679769,
神奈川中央交通,厚７４,厚木バスセンター～長坂［厚木市］,厚木バスセンター方面,長坂［厚木市］方面,東洋ソフラン前,https://mb.jorudan.co.jp//os/bus/1403/stop/60455.html,35.46020333,139.3677042,
神奈川中央交通,厚７４,厚木バスセンター～長坂［厚木市］,厚木バスセンター方面,長坂［厚木市］方面,鮎津橋,https://mb.jorudan.co.jp//os/bus/1403/stop/60716.html,35.45427972,139.3689678,
神奈川中央交通,厚７４,厚木バスセンター～長坂［厚木市］,厚木バスセンター方面,長坂［厚木市］方面,元町［厚木市］,https://mb.jorudan.co.jp//os/bus/1403/stop/61463.html,35.451535,139.36585,
神奈川中央交通,厚７４,厚木バスセンター～長坂［厚木市］,厚木バスセンター方面,長坂［厚木市］方面,小田急通り,https://mb.jorudan.co.jp//os/bus/1403/stop/229956.html,35.44799278,139.3660208,
神奈川中央交通,厚７４,厚木バスセンター～長坂［厚木市］,厚木バスセンター方面,長坂［厚木市］方面,厚木バスセンター,https://mb.jorudan.co.jp//os/bus/1403/stop/60410.html,35.44244278,139.3661008,
神奈川中央交通,厚７６,厚木バスセンター～猿ヶ島,猿ヶ島方面,厚木バスセンター方面,猿ヶ島,https://mb.jorudan.co.jp//os/bus/1403/stop/60141.html,35.50442611,139.3701286,
神奈川中央交通,厚７６,厚木バスセンター～猿ヶ島,猿ヶ島方面,厚木バスセンター方面,猿ヶ島入口,https://mb.jorudan.co.jp//os/bus/1403/stop/60839.html,35.50806111,139.3721483,
神奈川中央交通,厚７６,厚木バスセンター～猿ヶ島,猿ヶ島方面,厚木バスセンター方面,上依知浮島弁天前,https://mb.jorudan.co.jp//os/bus/1403/stop/59743.html,35.51518194,139.371545,
神奈川中央交通,厚７６,厚木バスセンター～猿ヶ島,猿ヶ島方面,厚木バスセンター方面,依知神社前,https://mb.jorudan.co.jp//os/bus/1403/stop/61457.html,35.51740806,139.3657114,
神奈川中央交通,厚７９,厚木バスセンター～原当麻駅,原当麻駅方面,厚木バスセンター方面,原当麻駅,https://mb.jorudan.co.jp//os/bus/1403/stop/58847.html,35.52945111,139.3754831,
神奈川中央交通,厚７９,厚木バスセンター～原当麻駅,原当麻駅方面,厚木バスセンター方面,夢の丘小学校入口,https://mb.jorudan.co.jp//os/bus/1403/stop/58562.html,35.53176833,139.3689919,
神奈川中央交通,厚７９,厚木バスセンター～原当麻駅,原当麻駅方面,厚木バスセンター方面,当麻市場,https://mb.jorudan.co.jp//os/bus/1403/stop/61383.html,35.52847806,139.3651675,
神奈川中央交通,厚７９,厚木バスセンター～原当麻駅,原当麻駅方面,厚木バスセンター方面,下当麻,https://mb.jorudan.co.jp//os/bus/1403/stop/61268.html,35.52549778,139.3648378,
神奈川中央交通,厚７９,厚木バスセンター～原当麻駅,原当麻駅方面,厚木バスセンター方面,昭和橋,https://mb.jorudan.co.jp//os/bus/1403/stop/60275.html,35.52356778,139.3661689,
神奈川中央交通,厚８０,厚木バスセンター～猿ヶ島,猿ヶ島方面,厚木バスセンター方面,猿ヶ島,https://mb.jorudan.co.jp//os/bus/1403/stop/60141.html,None,None,
神奈川中央交通,厚８９,厚木バスセンター～鳶尾団地,鳶尾団地方面,厚木バスセンター方面,西四ッ谷,https://mb.jorudan.co.jp//os/bus/1403/stop/60831.html,35.490685,139.3393419,
神奈川中央交通,厚８９,厚木バスセンター～鳶尾団地,鳶尾団地方面,厚木バスセンター方面,鳶尾団地東,https://mb.jorudan.co.jp//os/bus/1403/stop/58165.html,35.48981583,139.3354589,
神奈川中央交通,厚８９,厚木バスセンター～鳶尾団地,鳶尾団地方面,厚木バスセンター方面,鳶尾一丁目,https://mb.jorudan.co.jp//os/bus/1403/stop/60802.html,35.49166694,139.3339778,
神奈川中央交通,厚８９,厚木バスセンター～鳶尾団地,鳶尾団地方面,厚木バスセンター方面,鳶尾小学校入口,https://mb.jorudan.co.jp//os/bus/1403/stop/59416.html,35.49144194,139.3315019,
神奈川中央交通,厚８９,厚木バスセンター～鳶尾団地,鳶尾団地方面,本厚木駅方面,西四ッ谷,https://mb.jorudan.co.jp//os/bus/1403/stop/58767.html,35.4881625,139.3403156,
神奈川中央交通,厚８９,厚木バスセンター～鳶尾団地,鳶尾団地方面,本厚木駅方面,鳶尾団地東,https://mb.jorudan.co.jp//os/bus/1403/stop/60831.html,35.490685,139.3393419,
神奈川中央交通,厚８９,厚木バスセンター～鳶尾団地,鳶尾団地方面,本厚木駅方面,鳶尾一丁目,https://mb.jorudan.co.jp//os/bus/1403/stop/58165.html,35.48981583,139.3354589,
神奈川中央交通,厚８９,厚木バスセンター～鳶尾団地,鳶尾団地方面,本厚木駅方面,鳶尾小学校入口,https://mb.jorudan.co.jp//os/bus/1403/stop/60802.html,35.49166694,139.3339778,
神奈川中央交通,厚８９,厚木バスセンター～鳶尾団地,鳶尾団地方面,本厚木駅方面,鳶尾団地,https://mb.jorudan.co.jp//os/bus/1403/stop/59416.html,35.49144194,139.3315019,
神奈川中央交通,厚９４,本厚木駅～宮の里,宮の里方面,本厚木駅方面,荻野運動公園,https://mb.jorudan.co.jp//os/bus/1403/stop/60898.html,35.48302694,139.3213144,
神奈川中央交通,厚９４,本厚木駅～宮の里,宮の里方面,本厚木駅方面,うとう坂,https://mb.jorudan.co.jp//os/bus/1403/stop/59664.html,35.48518694,139.3234308,
神奈川中央交通,厚９５,厚木バスセンター～王子,王子方面,厚木バスセンター方面,厚木警察署前,https://mb.jorudan.co.jp//os/bus/1403/stop/61401.html,35.44521889,139.3582319,
神奈川中央交通,厚９５,厚木バスセンター～王子,王子方面,厚木バスセンター方面,王子入口,https://mb.jorudan.co.jp//os/bus/1403/stop/61343.html,35.45494056,139.3457431,
神奈川中央交通,厚９５,厚木バスセンター～王子,王子方面,厚木バスセンター方面,高校入口［厚木東・商業］,https://mb.jorudan.co.jp//os/bus/1403/stop/229978.html,35.45599333,139.3425069,
神奈川中央交通,厚９５,厚木バスセンター～王子,王子方面,厚木バスセンター方面,王子,https://mb.jorudan.co.jp//os/bus/1403/stop/60630.html,None,None,
神奈川中央交通,厚９６,厚木バスセンター～上三増,上三増方面,厚木バスセンター方面,愛川ハイテク団地,https://mb.jorudan.co.jp//os/bus/1403/stop/61511.html,35.54062444,139.3106667,
神奈川中央交通,厚９７,厚木バスセンター～王子,王子方面,厚木バスセンター方面,王子,https://mb.jorudan.co.jp//os/bus/1403/stop/60630.html,35.45751333,139.3405253,
神奈川中央交通,厚９７,厚木バスセンター～王子,王子方面,厚木バスセンター方面,吾妻団地,https://mb.jorudan.co.jp//os/bus/1403/stop/59473.html,35.452595,139.3542989,
神奈川中央交通,原１９,相原駅西口～法政大学,法政大学方面,相原駅西口方面,法政大学,https://mb.jorudan.co.jp//os/bus/1403/stop/60108.html,35.61359278,139.2970481,
神奈川中央交通,原１９,相原駅西口～法政大学,法政大学方面,相原駅西口方面,法政大学入口,https://mb.jorudan.co.jp//os/bus/1403/stop/266812.html,35.61163417,139.2958728,
神奈川中央交通,原１９,相原駅西口～法政大学,法政大学方面,相原駅西口方面,水の口,https://mb.jorudan.co.jp//os/bus/1403/stop/60188.html,35.60984889,139.2985389,
神奈川中央交通,原１９,相原駅西口～法政大学,法政大学方面,相原駅西口方面,円林寺前,https://mb.jorudan.co.jp//os/bus/1403/stop/61680.html,35.60690556,139.3019414,
神奈川中央交通,原１９,相原駅西口～法政大学,法政大学方面,相原駅西口方面,境橋［町田市］,https://mb.jorudan.co.jp//os/bus/1403/stop/229831.html,35.60579028,139.3046231,
神奈川中央交通,原１９,相原駅西口～法政大学,法政大学方面,相原駅西口方面,根岸［町田市相原町］,https://mb.jorudan.co.jp//os/bus/1403/stop/230159.html,35.60535556,139.309305,
神奈川中央交通,原１９,相原駅西口～法政大学,法政大学方面,相原駅西口方面,相原十字路,https://mb.jorudan.co.jp//os/bus/1403/stop/59139.html,35.60568917,139.3165542,
神奈川中央交通,原１９,相原駅西口～法政大学,法政大学方面,相原駅西口方面,開都,https://mb.jorudan.co.jp//os/bus/1403/stop/58224.html,35.60645972,139.3195569,
神奈川中央交通,原１９,相原駅西口～法政大学,法政大学方面,相原駅西口方面,相原小学校前,https://mb.jorudan.co.jp//os/bus/1403/stop/58618.html,35.60566778,139.3233678,
神奈川中央交通,原１９,相原駅西口～法政大学,法政大学方面,相原駅西口方面,諏訪神社前［町田市］,https://mb.jorudan.co.jp//os/bus/1403/stop/229928.html,35.60468056,139.3273397,
神奈川中央交通,原１９,相原駅西口～法政大学,法政大学方面,相原駅西口方面,相原駅西口,https://mb.jorudan.co.jp//os/bus/1403/stop/177594.html,35.60624667,139.3315058,
神奈川中央交通,原１９,相原駅西口～法政大学,相原駅西口方面,法政大学方面,公会堂前［町田市］,https://mb.jorudan.co.jp//os/bus/1403/stop/266812.html,35.61163417,139.2958728,
神奈川中央交通,原１９,相原駅西口～法政大学,法政大学体育館方面,相原駅西口方面,法政大学体育館,https://mb.jorudan.co.jp//os/bus/1403/stop/60108.html,35.61359278,139.2970481,
神奈川中央交通,原１９,相原駅西口～法政大学,法政大学体育館方面,相原駅西口方面,法政大学経済学部前,https://mb.jorudan.co.jp//os/bus/1403/stop/266812.html,35.61163417,139.2958728,
神奈川中央交通,原１９,相原駅西口～法政大学,法政大学体育館方面,相原駅西口方面,法政大学,https://mb.jorudan.co.jp//os/bus/1403/stop/60188.html,35.60984889,139.2985389,
神奈川中央交通,原１９,相原駅西口～法政大学,法政大学体育館方面,相原駅西口方面,相原駅西口,https://mb.jorudan.co.jp//os/bus/1403/stop/61680.html,35.60690556,139.3019414,
神奈川中央交通,原２１,相原駅西口～大戸［相模原市］,大戸［相模原市］方面,相原駅西口方面,大戸［相模原市］,https://mb.jorudan.co.jp//os/bus/1403/stop/229669.html,35.60955056,139.2839897,
神奈川中央交通,原２１,相原駅西口～大戸［相模原市］,大戸［相模原市］方面,相原駅西口方面,青少年Ｃ入口［相模原市］,https://mb.jorudan.co.jp//os/bus/1403/stop/230231.html,35.61244333,139.2855592,
神奈川中央交通,原２１,相原駅西口～大戸［相模原市］,大戸［相模原市］方面,相原駅西口方面,上大戸,https://mb.jorudan.co.jp//os/bus/1403/stop/58960.html,35.61317861,139.2882839,
神奈川中央交通,原２１,相原駅西口～大戸［相模原市］,大戸［相模原市］方面,相原駅西口方面,大戸橋,https://mb.jorudan.co.jp//os/bus/1403/stop/60570.html,35.61282306,139.2908447,
神奈川中央交通,原２１,相原駅西口～大戸［相模原市］,大戸［相模原市］方面,相原駅西口方面,公会堂前［町田市］,https://mb.jorudan.co.jp//os/bus/1403/stop/230189.html,35.61061611,139.2963692,
神奈川中央交通,原２３,相原駅西口～東京家政学院,東京家政学院方面,相原駅西口方面,東京家政学院,https://mb.jorudan.co.jp//os/bus/1403/stop/60578.html,35.61217222,139.3111281,
神奈川中央交通,原２３,相原駅西口～東京家政学院,東京家政学院方面,相原駅西口方面,東京家政学院前,https://mb.jorudan.co.jp//os/bus/1403/stop/60730.html,35.61006222,139.3124283,
神奈川中央交通,原２３,相原駅西口～東京家政学院,東京家政学院方面,相原駅西口方面,真米,https://mb.jorudan.co.jp//os/bus/1403/stop/59107.html,35.60771194,139.3144108,
神奈川中央交通,原２３,相原駅西口～東京家政学院,東京家政学院方面,相原駅西口方面,相原駅西口,https://mb.jorudan.co.jp//os/bus/1403/stop/177594.html,35.60642556,139.3314822,
神奈川中央交通,古０１,古淵駅～北里大学病院・北里大学,北里大学病院・北里大学方面,古淵駅方面,北里大学病院・北里大学,https://mb.jorudan.co.jp//os/bus/1403/stop/61207.html,35.53759694,139.3940208,
神奈川中央交通,古０１,古淵駅～北里大学病院・北里大学,北里大学病院・北里大学方面,古淵駅方面,麻溝台高校,https://mb.jorudan.co.jp//os/bus/1403/stop/58486.html,35.53707139,139.3976456,
神奈川中央交通,古０１,古淵駅～北里大学病院・北里大学,北里大学病院・北里大学方面,古淵駅方面,麻溝台入口,https://mb.jorudan.co.jp//os/bus/1403/stop/266811.html,35.53756833,139.4030814,
神奈川中央交通,古０１,古淵駅～北里大学病院・北里大学,北里大学病院・北里大学方面,古淵駅方面,大野台入口,https://mb.jorudan.co.jp//os/bus/1403/stop/60512.html,35.539015,139.4082608,
神奈川中央交通,古０１,古淵駅～北里大学病院・北里大学,北里大学病院・北里大学方面,古淵駅方面,大野台八丁目,https://mb.jorudan.co.jp//os/bus/1403/stop/58231.html,35.54309389,139.4052706,
神奈川中央交通,古０１,古淵駅～北里大学病院・北里大学,北里大学病院・北里大学方面,古淵駅方面,大野台四丁目,https://mb.jorudan.co.jp//os/bus/1403/stop/59778.html,35.54615556,139.4032275,
神奈川中央交通,古０１,古淵駅～北里大学病院・北里大学,北里大学病院・北里大学方面,古淵駅方面,ゴルフ場前［相模原ＧＣ］,https://mb.jorudan.co.jp//os/bus/1403/stop/229563.html,35.54928222,139.4009753,
神奈川中央交通,古０１,古淵駅～北里大学病院・北里大学,北里大学病院・北里大学方面,古淵駅方面,大野台中央小入口,https://mb.jorudan.co.jp//os/bus/1403/stop/58581.html,35.55307444,139.4038578,
神奈川中央交通,古０１,古淵駅～北里大学病院・北里大学,北里大学病院・北里大学方面,古淵駅方面,大野台二丁目,https://mb.jorudan.co.jp//os/bus/1403/stop/61504.html,35.55552194,139.4076286,
神奈川中央交通,古０１,古淵駅～北里大学病院・北里大学,北里大学病院・北里大学方面,古淵駅方面,老人ホーム入口［相模原市］,https://mb.jorudan.co.jp//os/bus/1403/stop/230082.html,35.55424889,139.4137158,
神奈川中央交通,古０１,古淵駅～北里大学病院・北里大学,北里大学病院・北里大学方面,古淵駅方面,古淵駅入口,https://mb.jorudan.co.jp//os/bus/1403/stop/58790.html,35.55293278,139.4161728,
神奈川中央交通,古０１,古淵駅～北里大学病院・北里大学,北里大学病院・北里大学方面,古淵駅方面,古淵駅,https://mb.jorudan.co.jp//os/bus/1403/stop/59920.html,35.55591861,139.4194783,
神奈川中央交通,古０２,古淵駅～山崎団地,山崎団地方面,古淵駅方面,山崎団地,https://mb.jorudan.co.jp//os/bus/1403/stop/59559.html,35.57256361,139.4329894,
神奈川中央交通,古０２,古淵駅～山崎団地,山崎団地方面,古淵駅方面,北二号［町田市］,https://mb.jorudan.co.jp//os/bus/1403/stop/229798.html,35.57456222,139.4332203,
神奈川中央交通,古０２,古淵駅～山崎団地,山崎団地方面,古淵駅方面,北一号［町田市］,https://mb.jorudan.co.jp//os/bus/1403/stop/229734.html,35.57475,139.4372481,
神奈川中央交通,古０２,古淵駅～山崎団地,山崎団地方面,古淵駅方面,給水塔前［山崎団地］,https://mb.jorudan.co.jp//os/bus/1403/stop/230222.html,35.57085833,139.4385931,
神奈川中央交通,古０２,古淵駅～山崎団地,山崎団地方面,古淵駅方面,山崎団地センター,https://mb.jorudan.co.jp//os/bus/1403/stop/61687.html,35.56765056,139.4351967,
神奈川中央交通,古０２,古淵駅～山崎団地,山崎団地方面,古淵駅方面,山崎団地入口,https://mb.jorudan.co.jp//os/bus/1403/stop/60816.html,35.56800889,139.4302008,
神奈川中央交通,古０２,古淵駅～山崎団地,山崎団地方面,古淵駅方面,木曽入口,https://mb.jorudan.co.jp//os/bus/1403/stop/60184.html,35.56714194,139.4250297,
神奈川中央交通,古０２,古淵駅～山崎団地,山崎団地方面,古淵駅方面,上横町,https://mb.jorudan.co.jp//os/bus/1403/stop/60995.html,35.56521778,139.4225978,
神奈川中央交通,古０２,古淵駅～山崎団地,山崎団地方面,古淵駅方面,境川団地,https://mb.jorudan.co.jp//os/bus/1403/stop/59153.html,35.56114694,139.42259,
神奈川中央交通,古０２,古淵駅～山崎団地,山崎団地方面,古淵駅方面,境川団地中央,https://mb.jorudan.co.jp//os/bus/1403/stop/60482.html,35.55949278,139.4239431,
神奈川中央交通,古０２,古淵駅～山崎団地,山崎団地方面,古淵駅方面,鹿島神社入口,https://mb.jorudan.co.jp//os/bus/1403/stop/58814.html,35.55732528,139.4226217,
神奈川中央交通,古０２,古淵駅～山崎団地,山崎団地方面,古淵駅方面,古淵駅,https://mb.jorudan.co.jp//os/bus/1403/stop/59920.html,35.55598,139.4195344,
神奈川中央交通,古０３,古淵駅～藤の台団地,藤の台団地方面,古淵駅方面,藤の台団地,https://mb.jorudan.co.jp//os/bus/1403/stop/59857.html,35.57125528,139.4490025,
神奈川中央交通,古０３,古淵駅～藤の台団地,藤の台団地方面,古淵駅方面,今井谷戸,https://mb.jorudan.co.jp//os/bus/1403/stop/58633.html,35.57184167,139.4430094,
神奈川中央交通,古０４,女子美術大学～古淵駅,古淵駅方面,女子美術大学方面,相模原南病院前,https://mb.jorudan.co.jp//os/bus/1403/stop/60432.html,35.54929,139.4149389,
神奈川中央交通,古０４,女子美術大学～古淵駅,古淵駅方面,女子美術大学方面,西大沼三丁目,https://mb.jorudan.co.jp//os/bus/1403/stop/61426.html,35.54326889,139.4132389,
神奈川中央交通,古０４,女子美術大学～古淵駅,古淵駅方面,女子美術大学方面,オルガノ前,https://mb.jorudan.co.jp//os/bus/1403/stop/61185.html,35.53756083,139.4115728,
神奈川中央交通,古０４,女子美術大学～古淵駅,古淵駅方面,女子美術大学方面,さがみ緑風園前,https://mb.jorudan.co.jp//os/bus/1403/stop/61476.html,35.53277194,139.4047239,
神奈川中央交通,古０４,女子美術大学～古淵駅,古淵駅方面,女子美術大学方面,麻溝台一丁目,https://mb.jorudan.co.jp//os/bus/1403/stop/59711.html,35.53240389,139.4012769,
神奈川中央交通,古０４,女子美術大学～古淵駅,古淵駅方面,女子美術大学方面,麻溝台工業団地,https://mb.jorudan.co.jp//os/bus/1403/stop/60864.html,35.53193778,139.3976569,
神奈川中央交通,古０４,女子美術大学～古淵駅,古淵駅方面,女子美術大学方面,総合体育館前［相模原市］,https://mb.jorudan.co.jp//os/bus/1403/stop/230043.html,35.52934944,139.395955,
神奈川中央交通,古０４,女子美術大学～古淵駅,古淵駅方面,女子美術大学方面,女子美術大学,https://mb.jorudan.co.jp//os/bus/1403/stop/58210.html,35.52933472,139.3898311,
神奈川中央交通,古０４,女子美術大学～古淵駅,女子美術大学方面,古淵駅方面,相模原南病院前,https://mb.jorudan.co.jp//os/bus/1403/stop/58790.html,35.55293278,139.4161728,
神奈川中央交通,古０４,女子美術大学～古淵駅,女子美術大学方面,古淵駅方面,西大沼三丁目,https://mb.jorudan.co.jp//os/bus/1403/stop/60432.html,35.54929,139.4149389,
神奈川中央交通,古０４,女子美術大学～古淵駅,女子美術大学方面,古淵駅方面,オルガノ前,https://mb.jorudan.co.jp//os/bus/1403/stop/61426.html,35.54326889,139.4132389,
神奈川中央交通,古０４,女子美術大学～古淵駅,女子美術大学方面,古淵駅方面,さがみ緑風園前,https://mb.jorudan.co.jp//os/bus/1403/stop/61185.html,35.53756083,139.4115728,
神奈川中央交通,古０４,女子美術大学～古淵駅,女子美術大学方面,古淵駅方面,麻溝台一丁目,https://mb.jorudan.co.jp//os/bus/1403/stop/61476.html,35.53277194,139.4047239,
神奈川中央交通,古０４,女子美術大学～古淵駅,女子美術大学方面,古淵駅方面,麻溝台工業団地,https://mb.jorudan.co.jp//os/bus/1403/stop/59711.html,35.53240389,139.4012769,
神奈川中央交通,古０４,女子美術大学～古淵駅,女子美術大学方面,古淵駅方面,総合体育館前［相模原市］,https://mb.jorudan.co.jp//os/bus/1403/stop/60864.html,35.53193778,139.3976569,
神奈川中央交通,古０４,女子美術大学～古淵駅,女子美術大学方面,古淵駅方面,女子美術大学,https://mb.jorudan.co.jp//os/bus/1403/stop/230043.html,35.52934944,139.395955,
神奈川中央交通,古０５,古淵駅～女子美術大学,女子美術大学方面,古淵駅方面,女子美術大学,https://mb.jorudan.co.jp//os/bus/1403/stop/58210.html,None,None,
神奈川中央交通,古０９,小田急相模原駅～古淵駅,古淵駅方面,小田急相模原駅方面,東大沼,https://mb.jorudan.co.jp//os/bus/1403/stop/59137.html,35.5486,139.4198989,
神奈川中央交通,古０９,小田急相模原駅～古淵駅,古淵駅方面,小田急相模原駅方面,長久保［相模原市］,https://mb.jorudan.co.jp//os/bus/1403/stop/229668.html,35.54636111,139.4188231,
神奈川中央交通,古０９,小田急相模原駅～古淵駅,古淵駅方面,小田急相模原駅方面,大沼神社前,https://mb.jorudan.co.jp//os/bus/1403/stop/59162.html,35.54350583,139.4176275,
神奈川中央交通,古０９,小田急相模原駅～古淵駅,古淵駅方面,小田急相模原駅方面,大沼中央,https://mb.jorudan.co.jp//os/bus/1403/stop/61209.html,35.54068583,139.416435,
神奈川中央交通,古０９,小田急相模原駅～古淵駅,古淵駅方面,小田急相模原駅方面,大沼,https://mb.jorudan.co.jp//os/bus/1403/stop/60629.html,35.53765639,139.4167078,
神奈川中央交通,古０９,小田急相模原駅～古淵駅,古淵駅方面,小田急相模原駅方面,西通り,https://mb.jorudan.co.jp//os/bus/1403/stop/58177.html,35.53491972,139.4155558,
神奈川中央交通,古０９,小田急相模原駅～古淵駅,古淵駅方面,小田急相模原駅方面,西大沼,https://mb.jorudan.co.jp//os/bus/1403/stop/61407.html,35.53209139,139.4138244,
神奈川中央交通,古０９,小田急相模原駅～古淵駅,古淵駅方面,小田急相模原駅方面,双葉小学校前,https://mb.jorudan.co.jp//os/bus/1403/stop/59045.html,35.53020583,139.4130269,
神奈川中央交通,古０９,小田急相模原駅～古淵駅,古淵駅方面,小田急相模原駅方面,双葉一丁目,https://mb.jorudan.co.jp//os/bus/1403/stop/59392.html,35.52714972,139.4119942,
神奈川中央交通,古０９,小田急相模原駅～古淵駅,古淵駅方面,小田急相模原駅方面,双葉入口,https://mb.jorudan.co.jp//os/bus/1403/stop/61665.html,35.52459083,139.4130378,
神奈川中央交通,古０９,小田急相模原駅～古淵駅,古淵駅方面,小田急相模原駅方面,第一住宅［相模原市］,https://mb.jorudan.co.jp//os/bus/1403/stop/229982.html,35.52303944,139.4120647,
神奈川中央交通,古０９,小田急相模原駅～古淵駅,古淵駅方面,小田急相模原駅方面,国立相模原病院,https://mb.jorudan.co.jp//os/bus/1403/stop/59531.html,35.52026722,139.4125217,
神奈川中央交通,古０９,小田急相模原駅～古淵駅,古淵駅方面,小田急相模原駅方面,相模台まちづくりセンター前,https://mb.jorudan.co.jp//os/bus/1403/stop/60414.html,35.51906778,139.41532,
神奈川中央交通,古０９,小田急相模原駅～古淵駅,古淵駅方面,小田急相模原駅方面,ハウス南門前,https://mb.jorudan.co.jp//os/bus/1403/stop/58323.html,35.51901583,139.4190658,
神奈川中央交通,古０９,小田急相模原駅～古淵駅,古淵駅方面,小田急相模原駅方面,鶴ヶ丘団地前,https://mb.jorudan.co.jp//os/bus/1403/stop/59315.html,35.51945528,139.4213439,
神奈川中央交通,古０９,小田急相模原駅～古淵駅,古淵駅方面,小田急相模原駅方面,二宮神社前,https://mb.jorudan.co.jp//os/bus/1403/stop/58491.html,35.51738778,139.4225753,
神奈川中央交通,古０９,小田急相模原駅～古淵駅,古淵駅方面,小田急相模原駅方面,小田急相模原駅,https://mb.jorudan.co.jp//os/bus/1403/stop/61392.html,35.51591056,139.4219536,
神奈川中央交通,台０１,相武台前駅～保育園前［相模原市］,相武台前駅方面,相武台前駅方面,相武台前駅,https://mb.jorudan.co.jp//os/bus/1403/stop/59367.html,35.49855944,139.4075939,
神奈川中央交通,台０１,相武台前駅～保育園前［相模原市］,相武台前駅方面,相武台前駅方面,県営住宅入口,https://mb.jorudan.co.jp//os/bus/1403/stop/61309.html,35.50172389,139.4097719,
神奈川中央交通,台０１,相武台前駅～保育園前［相模原市］,相武台前駅方面,相武台前駅方面,北相武台,https://mb.jorudan.co.jp//os/bus/1403/stop/60251.html,35.507,139.4131008,
神奈川中央交通,台０１,相武台前駅～保育園前［相模原市］,相武台前駅方面,相武台前駅方面,団地センター前,https://mb.jorudan.co.jp//os/bus/1403/stop/60084.html,35.509125,139.4097528,
神奈川中央交通,台０１,相武台前駅～保育園前［相模原市］,相武台前駅方面,相武台前駅方面,団地西［相模原市］,https://mb.jorudan.co.jp//os/bus/1403/stop/229755.html,35.51066444,139.4086272,
神奈川中央交通,台０１,相武台前駅～保育園前［相模原市］,相武台前駅方面,相武台前駅方面,団地東［相模原市］,https://mb.jorudan.co.jp//os/bus/1403/stop/229896.html,35.51245944,139.4107564,
神奈川中央交通,台０１,相武台前駅～保育園前［相模原市］,相武台前駅方面,相武台前駅方面,保育園前［相模原市］,https://mb.jorudan.co.jp//os/bus/1403/stop/229612.html,35.50996833,139.4133925,
神奈川中央交通,台０２,相武台前駅～相武台グリーンパーク,相武台グリーンパーク方面,相武台前駅方面,相武台グリーンパーク,https://mb.jorudan.co.jp//os/bus/1403/stop/61218.html,35.51005389,139.404665,
神奈川中央交通,台０２,相武台前駅～相武台グリーンパーク,相武台グリーンパーク方面,相武台前駅方面,新磯野公園前,https://mb.jorudan.co.jp//os/bus/1403/stop/60916.html,35.50725583,139.4070308,
神奈川中央交通,台０２,相武台前駅～相武台グリーンパーク,相武台グリーンパーク方面,相武台前駅方面,相武台前駅,https://mb.jorudan.co.jp//os/bus/1403/stop/59367.html,35.49871611,139.4077203,
神奈川中央交通,台０４,相武台前駅～座間四ツ谷,座間四ツ谷方面,相武台前駅方面,座間四ツ谷,https://mb.jorudan.co.jp//os/bus/1403/stop/59179.html,35.47473861,139.3888314,
神奈川中央交通,台０４,相武台前駅～座間四ツ谷,座間四ツ谷方面,相武台前駅方面,新田宿南,https://mb.jorudan.co.jp//os/bus/1403/stop/59015.html,35.47757528,139.3850711,
神奈川中央交通,台０４,相武台前駅～座間四ツ谷,座間四ツ谷方面,相武台前駅方面,新田宿中央,https://mb.jorudan.co.jp//os/bus/1403/stop/58599.html,35.480695,139.3852086,
神奈川中央交通,台０４,相武台前駅～座間四ツ谷,座間四ツ谷方面,相武台前駅方面,神社前［座間市座間］,https://mb.jorudan.co.jp//os/bus/1403/stop/230069.html,35.48375333,139.3863883,
神奈川中央交通,台０４,相武台前駅～座間四ツ谷,座間四ツ谷方面,相武台前駅方面,新河原宿,https://mb.jorudan.co.jp//os/bus/1403/stop/58903.html,35.48399861,139.3895336,
神奈川中央交通,台０４,相武台前駅～座間四ツ谷,座間四ツ谷方面,相武台前駅方面,市営住宅前［座間市］,https://mb.jorudan.co.jp//os/bus/1403/stop/230241.html,35.48296611,139.4096244,
神奈川中央交通,台０４,相武台前駅～座間四ツ谷,座間四ツ谷方面,相武台前駅方面,緑ヶ丘住宅入口,https://mb.jorudan.co.jp//os/bus/1403/stop/61541.html,35.48684083,139.4075928,
神奈川中央交通,台０４,相武台前駅～座間四ツ谷,座間四ツ谷方面,相武台前駅方面,市役所谷戸山公園前［座間市］,https://mb.jorudan.co.jp//os/bus/1403/stop/229967.html,35.48950583,139.4067947,
神奈川中央交通,台０４,相武台前駅～座間四ツ谷,座間四ツ谷方面,相武台前駅方面,座間中学校前,https://mb.jorudan.co.jp//os/bus/1403/stop/60688.html,35.49356139,139.406105,
神奈川中央交通,台０４,相武台前駅～座間四ツ谷,座間四ツ谷方面,相武台前駅方面,相武台前駅,https://mb.jorudan.co.jp//os/bus/1403/stop/59367.html,35.498465,139.4075189,
神奈川中央交通,台０６,相武台前駅～磯部,磯部方面,相武台前駅方面,磯部,https://mb.jorudan.co.jp//os/bus/1403/stop/59004.html,35.50678083,139.3821906,
神奈川中央交通,台０６,相武台前駅～磯部,磯部方面,相武台前駅方面,下磯部,https://mb.jorudan.co.jp//os/bus/1403/stop/61555.html,35.50600361,139.3841994,
神奈川中央交通,台０６,相武台前駅～磯部,磯部方面,相武台前駅方面,新磯まちづくりセンター前,https://mb.jorudan.co.jp//os/bus/1403/stop/59811.html,35.50313194,139.3852508,
神奈川中央交通,台０６,相武台前駅～磯部,磯部方面,相武台前駅方面,常福寺,https://mb.jorudan.co.jp//os/bus/1403/stop/58561.html,35.49989083,139.3854419,
神奈川中央交通,台０６,相武台前駅～磯部,磯部方面,相武台前駅方面,新戸河原,https://mb.jorudan.co.jp//os/bus/1403/stop/59549.html,35.49645583,139.3856244,
神奈川中央交通,台０６,相武台前駅～磯部,磯部方面,相武台前駅方面,座間,https://mb.jorudan.co.jp//os/bus/1403/stop/58560.html,35.49142,139.3918583,
神奈川中央交通,台０６,相武台前駅～磯部,磯部方面,相武台前駅方面,座間キャンプ前,https://mb.jorudan.co.jp//os/bus/1403/stop/58576.html,35.49181472,139.3967878,
神奈川中央交通,台０６,相武台前駅～磯部,磯部方面,相武台前駅方面,富士山公園前,https://mb.jorudan.co.jp//os/bus/1403/stop/60764.html,35.49243694,139.3990578,
神奈川中央交通,台０６,相武台前駅～磯部,磯部方面,相武台前駅方面,相武台前駅,https://mb.jorudan.co.jp//os/bus/1403/stop/59367.html,35.49884611,139.4078272,
神奈川中央交通,台１２,南林間駅～相武台前駅,相武台前駅方面,南林間駅方面,座間市役所入口,https://mb.jorudan.co.jp//os/bus/1403/stop/58585.html,35.49109,139.4072769,
神奈川中央交通,台１２,南林間駅～相武台前駅,相武台前駅方面,南林間駅方面,緑ヶ丘二丁目［座間市］,https://mb.jorudan.co.jp//os/bus/1403/stop/229861.html,35.49120556,139.4097142,
神奈川中央交通,台１２,南林間駅～相武台前駅,相武台前駅方面,南林間駅方面,小池大橋,https://mb.jorudan.co.jp//os/bus/1403/stop/59597.html,35.49053194,139.4144619,
神奈川中央交通,台１２,南林間駅～相武台前駅,相武台前駅方面,南林間駅方面,座間総合高校前,https://mb.jorudan.co.jp//os/bus/1403/stop/59393.html,35.48996194,139.4191828,
神奈川中央交通,台１２,南林間駅～相武台前駅,相武台前駅方面,南林間駅方面,ひばりが丘五丁目,https://mb.jorudan.co.jp//os/bus/1403/stop/60574.html,35.49018889,139.4299219,
神奈川中央交通,台１２,南林間駅～相武台前駅,相武台前駅方面,南林間駅方面,ひばりが丘一丁目,https://mb.jorudan.co.jp//os/bus/1403/stop/61447.html,35.49024889,139.4324219,
神奈川中央交通,台１２,南林間駅～相武台前駅,相武台前駅方面,南林間駅方面,十一条,https://mb.jorudan.co.jp//os/bus/1403/stop/58735.html,35.49133,139.4376158,
神奈川中央交通,台１２,南林間駅～相武台前駅,相武台前駅方面,南林間駅方面,九条,https://mb.jorudan.co.jp//os/bus/1403/stop/58930.html,35.49196778,139.4396608,
神奈川中央交通,台１２,南林間駅～相武台前駅,相武台前駅方面,南林間駅方面,南林間駅前通り,https://mb.jorudan.co.jp//os/bus/1403/stop/59720.html,35.49454194,139.4449369,
神奈川中央交通,台１２,南林間駅～相武台前駅,相武台前駅方面,南林間駅方面,南林間駅,https://mb.jorudan.co.jp//os/bus/1403/stop/59464.html,35.49579778,139.4474856,
神奈川中央交通,台１３,相武台前駅～北里大学病院・北里大学,北里大学病院・北里大学方面,相武台前駅方面,北里大学病院・北里大学,https://mb.jorudan.co.jp//os/bus/1403/stop/61207.html,35.53762806,139.3943806,
神奈川中央交通,台１３,相武台前駅～北里大学病院・北里大学,北里大学病院・北里大学方面,相武台前駅方面,友愛病院前,https://mb.jorudan.co.jp//os/bus/1403/stop/59865.html,35.53668583,139.3920958,
神奈川中央交通,台１３,相武台前駅～北里大学病院・北里大学,北里大学病院・北里大学方面,相武台前駅方面,友愛病院入口,https://mb.jorudan.co.jp//os/bus/1403/stop/59657.html,35.53527889,139.3914039,
神奈川中央交通,台１３,相武台前駅～北里大学病院・北里大学,北里大学病院・北里大学方面,相武台前駅方面,県立相模原公園入口,https://mb.jorudan.co.jp//os/bus/1403/stop/58241.html,35.53317889,139.3931458,
神奈川中央交通,台１３,相武台前駅～北里大学病院・北里大学,北里大学病院・北里大学方面,相武台前駅方面,麻溝台公園前,https://mb.jorudan.co.jp//os/bus/1403/stop/58484.html,35.52454083,139.3995028,
神奈川中央交通,台１３,相武台前駅～北里大学病院・北里大学,北里大学病院・北里大学方面,相武台前駅方面,若草小学校前,https://mb.jorudan.co.jp//os/bus/1403/stop/59598.html,35.52048167,139.4023081,
神奈川中央交通,台１３,相武台前駅～北里大学病院・北里大学,北里大学病院・北里大学方面,相武台前駅方面,若草公園前,https://mb.jorudan.co.jp//os/bus/1403/stop/58894.html,35.51679472,139.4051981,
神奈川中央交通,台１３,相武台前駅～北里大学病院・北里大学,北里大学病院・北里大学方面,相武台前駅方面,団地北［相模原市］,https://mb.jorudan.co.jp//os/bus/1403/stop/229636.html,35.51301778,139.4079881,
神奈川中央交通,台１３,相武台前駅～北里大学病院・北里大学,北里大学病院・北里大学方面,相武台前駅方面,相武台団地,https://mb.jorudan.co.jp//os/bus/1403/stop/59394.html,35.51017083,139.4115369,
神奈川中央交通,台１４,原当麻駅～相武台前駅,相武台前駅方面,原当麻駅方面,宗仲寺前,https://mb.jorudan.co.jp//os/bus/1403/stop/60053.html,35.49333444,139.3908369,
神奈川中央交通,台１４,原当麻駅～相武台前駅,相武台前駅方面,原当麻駅方面,新戸山谷,https://mb.jorudan.co.jp//os/bus/1403/stop/60471.html,35.49567778,139.3907169,
神奈川中央交通,台１４,原当麻駅～相武台前駅,相武台前駅方面,原当麻駅方面,新戸［相模原市］,https://mb.jorudan.co.jp//os/bus/1403/stop/229796.html,35.49869556,139.3886467,
神奈川中央交通,台１４,原当麻駅～相武台前駅,相武台前駅方面,原当麻駅方面,武井橋,https://mb.jorudan.co.jp//os/bus/1403/stop/60152.html,35.50079472,139.3881158,
神奈川中央交通,台１４,原当麻駅～相武台前駅,相武台前駅方面,原当麻駅方面,勝坂入口,https://mb.jorudan.co.jp//os/bus/1403/stop/58297.html,35.50622694,139.3877208,
神奈川中央交通,台１４,原当麻駅～相武台前駅,相武台前駅方面,原当麻駅方面,上磯部入口,https://mb.jorudan.co.jp//os/bus/1403/stop/61064.html,35.51189,139.3848639,
神奈川中央交通,台１４,原当麻駅～相武台前駅,相武台前駅方面,原当麻駅方面,相陽中学校前,https://mb.jorudan.co.jp//os/bus/1403/stop/58893.html,35.51449472,139.3832742,
神奈川中央交通,台１４,原当麻駅～相武台前駅,相武台前駅方面,原当麻駅方面,下溝,https://mb.jorudan.co.jp//os/bus/1403/stop/60373.html,35.51789722,139.3800494,
神奈川中央交通,台１４,原当麻駅～相武台前駅,相武台前駅方面,原当麻駅方面,八景の棚,https://mb.jorudan.co.jp//os/bus/1403/stop/58868.html,35.52222833,139.3774658,
神奈川中央交通,台１４,原当麻駅～相武台前駅,相武台前駅方面,原当麻駅方面,原当麻,https://mb.jorudan.co.jp//os/bus/1403/stop/61562.html,35.52689111,139.3746903,
神奈川中央交通,台１４,原当麻駅～相武台前駅,相武台前駅方面,原当麻駅方面,原当麻駅入口,https://mb.jorudan.co.jp//os/bus/1403/stop/58229.html,35.5276125,139.3760508,
神奈川中央交通,台１４,原当麻駅～相武台前駅,相武台前駅方面,原当麻駅方面,原当麻駅東,https://mb.jorudan.co.jp//os/bus/1403/stop/59637.html,35.52921778,139.3780239,
神奈川中央交通,台１４,原当麻駅～相武台前駅,相武台前駅方面,原当麻駅方面,原当麻駅,https://mb.jorudan.co.jp//os/bus/1403/stop/58847.html,35.52939444,139.3752619,
神奈川中央交通,台１４,原当麻駅～相武台前駅,原当麻駅方面,相武台前駅方面,原当麻駅入口,https://mb.jorudan.co.jp//os/bus/1403/stop/61562.html,35.52689111,139.3746903,
神奈川中央交通,台１４,原当麻駅～相武台前駅,原当麻駅方面,相武台前駅方面,原当麻駅東,https://mb.jorudan.co.jp//os/bus/1403/stop/58229.html,35.5276125,139.3760508,
神奈川中央交通,台１４,原当麻駅～相武台前駅,原当麻駅方面,相武台前駅方面,原当麻駅,https://mb.jorudan.co.jp//os/bus/1403/stop/59637.html,35.52921778,139.3780239,
神奈川中央交通,和０３,大和駅～上和田団地,上和田団地方面,大和駅方面,上和田団地,https://mb.jorudan.co.jp//os/bus/1403/stop/60799.html,35.43863778,139.4745625,
神奈川中央交通,和０３,大和駅～上和田団地,上和田団地方面,大和駅方面,団地入口［大和市］,https://mb.jorudan.co.jp//os/bus/1403/stop/230207.html,35.43664111,139.4717406,
神奈川中央交通,和０３,大和駅～上和田団地,上和田団地方面,大和駅方面,上和田［上和田団地側］,https://mb.jorudan.co.jp//os/bus/1403/stop/59442.html,35.43741389,139.4673272,
神奈川中央交通,和０３,大和駅～上和田団地,上和田団地方面,大和駅方面,指導農場前,https://mb.jorudan.co.jp//os/bus/1403/stop/229892.html,35.44401583,139.4672278,
神奈川中央交通,和０３,大和駅～上和田団地,上和田団地方面,大和駅方面,桜株,https://mb.jorudan.co.jp//os/bus/1403/stop/61168.html,35.450815,139.4677047,
神奈川中央交通,和０３,大和駅～上和田団地,上和田団地方面,大和駅方面,学校入口［桜丘小］,https://mb.jorudan.co.jp//os/bus/1403/stop/230210.html,35.45332944,139.4667619,
神奈川中央交通,和０３,大和駅～上和田団地,上和田団地方面,大和駅方面,住宅入口［大和市］,https://mb.jorudan.co.jp//os/bus/1403/stop/230186.html,35.45644444,139.4669647,
神奈川中央交通,和０３,大和駅～上和田団地,上和田団地方面,大和駅方面,上野原［大和市］,https://mb.jorudan.co.jp//os/bus/1403/stop/229613.html,35.45849389,139.4672481,
神奈川中央交通,和０３,大和駅～上和田団地,上和田団地方面,大和駅方面,山王塚［大和市］,https://mb.jorudan.co.jp//os/bus/1403/stop/229811.html,35.46126056,139.4674231,
神奈川中央交通,和０３,大和駅～上和田団地,上和田団地方面,大和駅方面,大和南,https://mb.jorudan.co.jp//os/bus/1403/stop/59752.html,35.46513194,139.4666328,
神奈川中央交通,和０３,大和駅～上和田団地,上和田団地方面,大和駅方面,天満宮,https://mb.jorudan.co.jp//os/bus/1403/stop/61321.html,35.46817389,139.4652197,
神奈川中央交通,和０３,大和駅～上和田団地,上和田団地方面,大和駅方面,大和駅,https://mb.jorudan.co.jp//os/bus/1403/stop/58446.html,35.46954444,139.4613008,
神奈川中央交通,和０６,いちょう団地～大和駅,大和駅方面,いちょう団地方面,下和田,https://mb.jorudan.co.jp//os/bus/1403/stop/61104.html,35.42600583,139.4689797,
神奈川中央交通,和０６,いちょう団地～大和駅,大和駅方面,いちょう団地方面,学校前［渋谷小］,https://mb.jorudan.co.jp//os/bus/1403/stop/230113.html,35.43176556,139.4677731,
神奈川中央交通,和０６,いちょう団地～大和駅,大和駅方面,いちょう団地方面,上和田南,https://mb.jorudan.co.jp//os/bus/1403/stop/59682.html,35.43677278,139.466825,
神奈川中央交通,和０６,いちょう団地～大和駅,大和駅方面,いちょう団地方面,大和駅,https://mb.jorudan.co.jp//os/bus/1403/stop/58446.html,None,None,
神奈川中央交通,善０１,善行駅～善行団地,善行団地方面,善行駅方面,善行団地,https://mb.jorudan.co.jp//os/bus/1403/stop/59169.html,35.36687917,139.4621994,
神奈川中央交通,善０１,善行駅～善行団地,善行団地方面,善行駅方面,マーケット前,https://mb.jorudan.co.jp//os/bus/1403/stop/61295.html,35.36693083,139.4638528,
神奈川中央交通,善０１,善行駅～善行団地,善行団地方面,善行駅方面,団地入口［藤沢市］,https://mb.jorudan.co.jp//os/bus/1403/stop/230070.html,35.36725944,139.4682017,
神奈川中央交通,善０１,善行駅～善行団地,善行団地方面,善行駅方面,善行二丁目坂上,https://mb.jorudan.co.jp//os/bus/1403/stop/58670.html,35.36649056,139.4693372,
神奈川中央交通,善０１,善行駅～善行団地,善行団地方面,善行駅方面,善行駅,https://mb.jorudan.co.jp//os/bus/1403/stop/59163.html,35.36296472,139.4730133,
神奈川中央交通,善０１,善行駅～善行団地,善行駅方面,善行団地方面,善行駅,https://mb.jorudan.co.jp//os/bus/1403/stop/58670.html,35.36649056,139.4693372,
神奈川中央交通,善０２,善行駅～老人センター［藤沢市］,老人センター［藤沢市］方面,善行駅方面,老人センター［藤沢市］,https://mb.jorudan.co.jp//os/bus/1403/stop/229875.html,35.35396417,139.4617125,
神奈川中央交通,善０２,善行駅～老人センター［藤沢市］,老人センター［藤沢市］方面,善行駅方面,卸売市場前,https://mb.jorudan.co.jp//os/bus/1403/stop/229594.html,35.35453194,139.46326,
神奈川中央交通,善０２,善行駅～老人センター［藤沢市］,老人センター［藤沢市］方面,善行駅方面,中郷［藤沢市］,https://mb.jorudan.co.jp//os/bus/1403/stop/229774.html,35.35444278,139.4654544,
神奈川中央交通,善０２,善行駅～老人センター［藤沢市］,老人センター［藤沢市］方面,善行駅方面,関東航空前,https://mb.jorudan.co.jp//os/bus/1403/stop/60324.html,35.35585,139.4674128,
神奈川中央交通,善０２,善行駅～老人センター［藤沢市］,老人センター［藤沢市］方面,善行駅方面,石原谷,https://mb.jorudan.co.jp//os/bus/1403/stop/60893.html,35.357675,139.4677128,
神奈川中央交通,善０２,善行駅～老人センター［藤沢市］,老人センター［藤沢市］方面,善行駅方面,茅山,https://mb.jorudan.co.jp//os/bus/1403/stop/59437.html,35.36120278,139.4665978,
神奈川中央交通,善０２,善行駅～老人センター［藤沢市］,老人センター［藤沢市］方面,善行駅方面,善行二丁目,https://mb.jorudan.co.jp//os/bus/1403/stop/61689.html,35.36402,139.4694281,
神奈川中央交通,善０３,善行駅～湘南ライフタウン,湘南ライフタウン方面,善行駅方面,湘南ライフタウン,https://mb.jorudan.co.jp//os/bus/1403/stop/60752.html,35.37531972,139.4335972,
神奈川中央交通,善０３,善行駅～湘南ライフタウン,湘南ライフタウン方面,善行駅方面,滝の沢不動前,https://mb.jorudan.co.jp//os/bus/1403/stop/61219.html,35.37259,139.4362269,
神奈川中央交通,善０３,善行駅～湘南ライフタウン,湘南ライフタウン方面,善行駅方面,滝の沢［藤沢市］,https://mb.jorudan.co.jp//os/bus/1403/stop/230095.html,35.37155333,139.4396883,
神奈川中央交通,善０３,善行駅～湘南ライフタウン,湘南ライフタウン方面,善行駅方面,駒寄,https://mb.jorudan.co.jp//os/bus/1403/stop/59052.html,35.37034694,139.4430119,
神奈川中央交通,善０３,善行駅～湘南ライフタウン,湘南ライフタウン方面,善行駅方面,二番構保健医療センター,https://mb.jorudan.co.jp//os/bus/1403/stop/61519.html,35.36859778,139.4465108,
神奈川中央交通,善０３,善行駅～湘南ライフタウン,湘南ライフタウン方面,善行駅方面,駒寄小学校前,https://mb.jorudan.co.jp//os/bus/1403/stop/60876.html,35.36888389,139.4480608,
神奈川中央交通,善０３,善行駅～湘南ライフタウン,湘南ライフタウン方面,善行駅方面,北の谷,https://mb.jorudan.co.jp//os/bus/1403/stop/60683.html,35.36765583,139.4525039,
神奈川中央交通,善０３,善行駅～湘南ライフタウン,湘南ライフタウン方面,善行駅方面,弁天前,https://mb.jorudan.co.jp//os/bus/1403/stop/60422.html,35.36461389,139.4539928,
神奈川中央交通,善０３,善行駅～湘南ライフタウン,湘南ライフタウン方面,善行駅方面,天神社前,https://mb.jorudan.co.jp//os/bus/1403/stop/60860.html,35.36211611,139.4544867,
神奈川中央交通,善０３,善行駅～湘南ライフタウン,湘南ライフタウン方面,善行駅方面,舟地蔵,https://mb.jorudan.co.jp//os/bus/1403/stop/61145.html,35.35901889,139.4530319,
神奈川中央交通,善０３,善行駅～湘南ライフタウン,湘南ライフタウン方面,善行駅方面,大六天,https://mb.jorudan.co.jp//os/bus/1403/stop/60854.html,35.35345,139.4542319,
神奈川中央交通,善０４,善行駅～善行団地,善行団地方面,善行駅方面,２街区グラウンド前,https://mb.jorudan.co.jp//os/bus/1403/stop/59129.html,35.36836528,139.4659644,
神奈川中央交通,善０４,善行駅～善行団地,善行団地方面,善行駅方面,富士見台［藤沢市］,https://mb.jorudan.co.jp//os/bus/1403/stop/229990.html,35.36976611,139.4680175,
神奈川中央交通,善０４,善行駅～善行団地,善行団地方面,善行駅方面,善行台,https://mb.jorudan.co.jp//os/bus/1403/stop/60712.html,35.36894556,139.4703292,
神奈川中央交通,善０４,善行駅～善行団地,善行団地方面,善行駅方面,善行駅入口,https://mb.jorudan.co.jp//os/bus/1403/stop/58603.html,35.36496278,139.4728378,
神奈川中央交通,善０５,善行駅～団地入口［藤沢市］,善行駅方面,善行駅方面,善行駅,https://mb.jorudan.co.jp//os/bus/1403/stop/59163.html,None,None,
神奈川中央交通,善０５,善行駅～団地入口［藤沢市］,善行駅方面,善行駅方面,善行坂南,https://mb.jorudan.co.jp//os/bus/1403/stop/58503.html,35.36152194,139.4639958,
神奈川中央交通,善０５,善行駅～団地入口［藤沢市］,善行駅方面,善行駅方面,善行坂北,https://mb.jorudan.co.jp//os/bus/1403/stop/61184.html,35.36356194,139.4615108,
神奈川中央交通,善０５,善行駅～団地入口［藤沢市］,善行駅方面,善行駅方面,善行団地西,https://mb.jorudan.co.jp//os/bus/1403/stop/61600.html,35.36526694,139.4608728,
神奈川中央交通,国０４,国府津駅～橘団地,橘団地方面,国府津駅方面,診療所前［小田原市］,https://mb.jorudan.co.jp//os/bus/1403/stop/230204.html,35.29996556,139.2283022,
神奈川中央交通,国０４,国府津駅～橘団地,橘団地方面,国府津駅方面,鐘藪,https://mb.jorudan.co.jp//os/bus/1403/stop/177582.html,35.29828611,139.2314828,
神奈川中央交通,国０４,国府津駅～橘団地,橘団地方面,国府津駅方面,押切・塔台橋,https://mb.jorudan.co.jp//os/bus/1403/stop/177581.html,35.28889694,139.2353683,
神奈川中央交通,国０４,国府津駅～橘団地,橘団地方面,国府津駅方面,橘インター入口,https://mb.jorudan.co.jp//os/bus/1403/stop/60194.html,35.28786944,139.2332347,
神奈川中央交通,国０４,国府津駅～橘団地,橘団地方面,国府津駅方面,町屋［小田原市］,https://mb.jorudan.co.jp//os/bus/1403/stop/229813.html,35.28683667,139.2316003,
神奈川中央交通,国０４,国府津駅～橘団地,橘団地方面,国府津駅方面,小学校前［前羽］,https://mb.jorudan.co.jp//os/bus/1403/stop/229800.html,35.28455556,139.2266675,
神奈川中央交通,国０４,国府津駅～橘団地,橘団地方面,国府津駅方面,近戸神社,https://mb.jorudan.co.jp//os/bus/1403/stop/59135.html,35.28385722,139.2238472,
神奈川中央交通,国０４,国府津駅～橘団地,橘団地方面,国府津駅方面,前川,https://mb.jorudan.co.jp//os/bus/1403/stop/60360.html,35.28308111,139.2218361,
神奈川中央交通,国０４,国府津駅～橘団地,橘団地方面,国府津駅方面,西前川,https://mb.jorudan.co.jp//os/bus/1403/stop/59907.html,35.28192167,139.2198467,
神奈川中央交通,国０４,国府津駅～橘団地,橘団地方面,国府津駅方面,国府津駅,https://mb.jorudan.co.jp//os/bus/1403/stop/59051.html,35.28048611,139.2126258,
神奈川中央交通,国０５,国府津駅～橘団地,橘団地方面,国府津駅方面,テクノパーク西,https://mb.jorudan.co.jp//os/bus/1403/stop/177570.html,35.29036972,139.2264344,
神奈川中央交通,国０５,国府津駅～橘団地,橘団地方面,国府津駅方面,橘タウンセンター前,https://mb.jorudan.co.jp//os/bus/1403/stop/177578.html,35.29289194,139.2282281,
神奈川中央交通,国０５,国府津駅～橘団地,国府津駅方面,橘団地方面,橘タウンセンター前,https://mb.jorudan.co.jp//os/bus/1403/stop/177570.html,35.29036972,139.2264344,
神奈川中央交通,国０５,国府津駅～橘団地,国府津駅方面,橘団地方面,テクノパーク西,https://mb.jorudan.co.jp//os/bus/1403/stop/177578.html,35.29289194,139.2282281,
神奈川中央交通,国０６,国府津駅～鐘藪,国府津駅方面,国府津駅方面,国府津駅,https://mb.jorudan.co.jp//os/bus/1403/stop/59051.html,None,None,
神奈川中央交通,堀０１,京王堀之内駅～蓮生寺［八王子市］,京王堀之内駅方面,京王堀之内駅方面,別所谷戸,https://mb.jorudan.co.jp//os/bus/1403/stop/61796.html,35.61857194,139.3971289,
神奈川中央交通,堀０１,京王堀之内駅～蓮生寺［八王子市］,京王堀之内駅方面,京王堀之内駅方面,せせらぎ橋,https://mb.jorudan.co.jp//os/bus/1403/stop/60111.html,35.61629778,139.396905,
神奈川中央交通,堀０１,京王堀之内駅～蓮生寺［八王子市］,京王堀之内駅方面,京王堀之内駅方面,別所小学校,https://mb.jorudan.co.jp//os/bus/1403/stop/59730.html,35.61401528,139.3972361,
神奈川中央交通,堀０１,京王堀之内駅～蓮生寺［八王子市］,京王堀之内駅方面,京王堀之内駅方面,見附ヶ丘,https://mb.jorudan.co.jp//os/bus/1403/stop/58716.html,35.61146194,139.3943539,
神奈川中央交通,堀０１,京王堀之内駅～蓮生寺［八王子市］,京王堀之内駅方面,京王堀之内駅方面,見附橋,https://mb.jorudan.co.jp//os/bus/1403/stop/60749.html,35.61254583,139.3908919,
神奈川中央交通,堀０１,京王堀之内駅～蓮生寺［八王子市］,京王堀之内駅方面,京王堀之内駅方面,浄瑠璃緑地下,https://mb.jorudan.co.jp//os/bus/1403/stop/60920.html,35.61497,139.39321,
神奈川中央交通,堀０１,京王堀之内駅～蓮生寺［八王子市］,京王堀之内駅方面,京王堀之内駅方面,蓮生寺［八王子市］,https://mb.jorudan.co.jp//os/bus/1403/stop/230247.html,35.61710056,139.3954556,
神奈川中央交通,堀０３,京王堀之内駅～南大沢駅,南大沢駅方面,京王堀之内駅方面,南大沢駅,https://mb.jorudan.co.jp//os/bus/1403/stop/58366.html,35.61398667,139.3806606,
神奈川中央交通,堀０３,京王堀之内駅～南大沢駅,南大沢駅方面,京王堀之内駅方面,長池公園西,https://mb.jorudan.co.jp//os/bus/1403/stop/58951.html,35.60602778,139.3874969,
神奈川中央交通,堀０３,京王堀之内駅～南大沢駅,南大沢駅方面,京王堀之内駅方面,長池小学校入口,https://mb.jorudan.co.jp//os/bus/1403/stop/61433.html,35.607845,139.3882878,
神奈川中央交通,堀０３,京王堀之内駅～南大沢駅,南大沢駅方面,京王堀之内駅方面,別所一丁目,https://mb.jorudan.co.jp//os/bus/1403/stop/60474.html,35.61454917,139.3897167,
神奈川中央交通,堀０３,京王堀之内駅～南大沢駅,南大沢駅方面,京王堀之内駅方面,松木中学校,https://mb.jorudan.co.jp//os/bus/1403/stop/59211.html,35.61667694,139.391335,
神奈川中央交通,堀０３,京王堀之内駅～南大沢駅,南大沢駅方面,京王堀之内駅方面,松木小学校入口,https://mb.jorudan.co.jp//os/bus/1403/stop/58916.html,35.62100278,139.3951669,
神奈川中央交通,堀０３,京王堀之内駅～南大沢駅,南大沢駅方面,京王堀之内駅方面,京王堀之内駅,https://mb.jorudan.co.jp//os/bus/1403/stop/58522.html,35.62456167,139.4014669,
神奈川中央交通,境０１,三ツ境駅～上飯田車庫,上飯田車庫方面,三ツ境駅方面,遊水池前［横浜市泉区］,https://mb.jorudan.co.jp//os/bus/1403/stop/229597.html,35.44289778,139.4875869,
神奈川中央交通,境０１,三ツ境駅～上飯田車庫,上飯田車庫方面,三ツ境駅方面,柳明,https://mb.jorudan.co.jp//os/bus/1403/stop/59990.html,35.44297778,139.4910139,
神奈川中央交通,境０１,三ツ境駅～上飯田車庫,上飯田車庫方面,三ツ境駅方面,阿久和山谷［上飯田車庫］,https://mb.jorudan.co.jp//os/bus/1403/stop/229540.html,35.44477167,139.4965636,
神奈川中央交通,境０１,三ツ境駅～上飯田車庫,上飯田車庫方面,三ツ境駅方面,阿久和,https://mb.jorudan.co.jp//os/bus/1403/stop/58151.html,35.44787611,139.5040786,
神奈川中央交通,境０１,三ツ境駅～上飯田車庫,上飯田車庫方面,三ツ境駅方面,宮の腰［横浜市瀬谷区］,https://mb.jorudan.co.jp//os/bus/1403/stop/230055.html,35.45022333,139.5032503,
神奈川中央交通,境０１,三ツ境駅～上飯田車庫,上飯田車庫方面,三ツ境駅方面,谷戸阿久和,https://mb.jorudan.co.jp//os/bus/1403/stop/58569.html,35.45243583,139.5026528,
神奈川中央交通,境０１,三ツ境駅～上飯田車庫,上飯田車庫方面,三ツ境駅方面,上阿久和,https://mb.jorudan.co.jp//os/bus/1403/stop/60513.html,35.45735778,139.5000269,
神奈川中央交通,境０１,三ツ境駅～上飯田車庫,上飯田車庫方面,三ツ境駅方面,三ツ境駅,https://mb.jorudan.co.jp//os/bus/1403/stop/60705.html,35.46669833,139.5040689,
神奈川中央交通,境１１,三ツ境駅～宮沢,宮沢方面,三ツ境駅方面,阿久和山谷［宮沢］,https://mb.jorudan.co.jp//os/bus/1403/stop/230056.html,35.44877472,139.4966869,
神奈川中央交通,境１１,三ツ境駅～宮沢,宮沢方面,三ツ境駅方面,西村,https://mb.jorudan.co.jp//os/bus/1403/stop/58150.html,35.44901306,139.4944728,
神奈川中央交通,境１１,三ツ境駅～宮沢,宮沢方面,三ツ境駅方面,宮沢,https://mb.jorudan.co.jp//os/bus/1403/stop/61561.html,35.44898778,139.4910781,
神奈川中央交通,境１１,三ツ境駅～宮沢,三ツ境駅方面,宮沢方面,富士見通り商店街,https://mb.jorudan.co.jp//os/bus/1403/stop/59273.html,35.46747278,139.5029439,
神奈川中央交通,境１１,三ツ境駅～宮沢,三ツ境駅方面,宮沢方面,富士見台［横浜市］,https://mb.jorudan.co.jp//os/bus/1403/stop/61214.html,35.46767333,139.500855,
神奈川中央交通,境１１,三ツ境駅～宮沢,三ツ境駅方面,宮沢方面,住宅前［横浜市瀬谷区］,https://mb.jorudan.co.jp//os/bus/1403/stop/229570.html,35.46450389,139.5003453,
神奈川中央交通,境１１,三ツ境駅～宮沢,三ツ境駅方面,宮沢方面,旭ヶ丘,https://mb.jorudan.co.jp//os/bus/1403/stop/230144.html,35.46171611,139.5001106,
神奈川中央交通,境１１,三ツ境駅～宮沢,三ツ境駅方面,宮沢方面,三ツ境小学校前,https://mb.jorudan.co.jp//os/bus/1403/stop/61220.html,35.45855556,139.4990883,
神奈川中央交通,境１１,三ツ境駅～宮沢,三ツ境駅方面,宮沢方面,原中学校前,https://mb.jorudan.co.jp//os/bus/1403/stop/59495.html,35.45923222,139.4978425,
神奈川中央交通,境１１,三ツ境駅～宮沢,三ツ境駅方面,宮沢方面,向原［横浜市瀬谷区］,https://mb.jorudan.co.jp//os/bus/1403/stop/60721.html,35.45480611,139.4972181,
神奈川中央交通,境１１,三ツ境駅～宮沢,三ツ境駅方面,宮沢方面,原店,https://mb.jorudan.co.jp//os/bus/1403/stop/229559.html,35.45221056,139.4979906,
神奈川中央交通,境１１,三ツ境駅～宮沢,三ツ境駅方面,宮沢方面,阿久和山谷［宮沢］,https://mb.jorudan.co.jp//os/bus/1403/stop/58416.html,35.44958722,139.4987892,
神奈川中央交通,境１１,三ツ境駅～宮沢,三ツ境駅方面,宮沢方面,西村,https://mb.jorudan.co.jp//os/bus/1403/stop/230056.html,35.44877472,139.4966869,
神奈川中央交通,境１１,三ツ境駅～宮沢,三ツ境駅方面,宮沢方面,宮沢,https://mb.jorudan.co.jp//os/bus/1403/stop/58150.html,35.44901306,139.4944728,
神奈川中央交通,境２１,三ツ境駅北口～十日市場駅,十日市場駅方面,三ツ境駅北口方面,十日市場駅,https://mb.jorudan.co.jp//os/bus/1403/stop/61848.html,35.52611472,139.5156864,
神奈川中央交通,境２１,三ツ境駅北口～十日市場駅,十日市場駅方面,三ツ境駅北口方面,十日市場,https://mb.jorudan.co.jp//os/bus/1403/stop/59000.html,35.52442667,139.5107258,
神奈川中央交通,境２１,三ツ境駅北口～十日市場駅,十日市場駅方面,三ツ境駅北口方面,中山谷,https://mb.jorudan.co.jp//os/bus/1403/stop/60478.html,35.52081889,139.5080069,
神奈川中央交通,境２１,三ツ境駅北口～十日市場駅,十日市場駅方面,三ツ境駅北口方面,遊水池前［横浜市緑区］,https://mb.jorudan.co.jp//os/bus/1403/stop/229582.html,35.51847167,139.5082286,
神奈川中央交通,境２１,三ツ境駅北口～十日市場駅,十日市場駅方面,三ツ境駅北口方面,萱場公園入口,https://mb.jorudan.co.jp//os/bus/1403/stop/58300.html,35.51597389,139.5079258,
神奈川中央交通,境２１,三ツ境駅北口～十日市場駅,十日市場駅方面,三ツ境駅北口方面,郵便局前［横浜市］,https://mb.jorudan.co.jp//os/bus/1403/stop/229541.html,35.51371111,139.5060981,
神奈川中央交通,境２１,三ツ境駅北口～十日市場駅,十日市場駅方面,三ツ境駅北口方面,霧が丘センター前,https://mb.jorudan.co.jp//os/bus/1403/stop/59489.html,35.51264139,139.5032697,
神奈川中央交通,境２１,三ツ境駅北口～十日市場駅,十日市場駅方面,三ツ境駅北口方面,若葉台中央［横浜市］,https://mb.jorudan.co.jp//os/bus/1403/stop/230169.html,35.50636111,139.4986328,
神奈川中央交通,境２１,三ツ境駅北口～十日市場駅,十日市場駅方面,三ツ境駅北口方面,大貫橋,https://mb.jorudan.co.jp//os/bus/1403/stop/61692.html,35.49768556,139.4993564,
神奈川中央交通,境２１,三ツ境駅北口～十日市場駅,十日市場駅方面,三ツ境駅北口方面,亀甲山,https://mb.jorudan.co.jp//os/bus/1403/stop/58940.html,35.49743556,139.4972242,
神奈川中央交通,境２１,三ツ境駅北口～十日市場駅,十日市場駅方面,三ツ境駅北口方面,原分,https://mb.jorudan.co.jp//os/bus/1403/stop/61663.html,35.49605889,139.5023428,
神奈川中央交通,境２１,三ツ境駅北口～十日市場駅,十日市場駅方面,三ツ境駅北口方面,東根,https://mb.jorudan.co.jp//os/bus/1403/stop/58719.html,35.49355722,139.5067869,
神奈川中央交通,境２１,三ツ境駅北口～十日市場駅,十日市場駅方面,三ツ境駅北口方面,川井橋,https://mb.jorudan.co.jp//os/bus/1403/stop/60685.html,35.49067111,139.505835,
神奈川中央交通,境２１,三ツ境駅北口～十日市場駅,十日市場駅方面,三ツ境駅北口方面,程ヶ谷カントリークラブ前,https://mb.jorudan.co.jp//os/bus/1403/stop/61411.html,35.48911222,139.5045817,
神奈川中央交通,境２１,三ツ境駅北口～十日市場駅,十日市場駅方面,三ツ境駅北口方面,矢指町入口,https://mb.jorudan.co.jp//os/bus/1403/stop/61559.html,35.48440556,139.5042614,
神奈川中央交通,境２１,三ツ境駅北口～十日市場駅,十日市場駅方面,三ツ境駅北口方面,西部病院前,https://mb.jorudan.co.jp//os/bus/1403/stop/58512.html,35.47789583,139.5017869,
神奈川中央交通,境２１,三ツ境駅北口～十日市場駅,十日市場駅方面,三ツ境駅北口方面,水道企業団前,https://mb.jorudan.co.jp//os/bus/1403/stop/230199.html,35.47475694,139.5009639,
神奈川中央交通,境２１,三ツ境駅北口～十日市場駅,十日市場駅方面,三ツ境駅北口方面,つゆきの森,https://mb.jorudan.co.jp//os/bus/1403/stop/60835.html,35.47142889,139.5019628,
神奈川中央交通,境２１,三ツ境駅北口～十日市場駅,十日市場駅方面,三ツ境駅北口方面,三ツ境駅北口,https://mb.jorudan.co.jp//os/bus/1403/stop/61450.html,35.4684675,139.5021167,
神奈川中央交通,境３０,三ツ境駅北口～細谷戸第５,細谷戸第５方面,三ツ境駅北口方面,細谷戸第５,https://mb.jorudan.co.jp//os/bus/1403/stop/59965.html,35.48158611,139.4867136,
神奈川中央交通,境３０,三ツ境駅北口～細谷戸第５,細谷戸第５方面,三ツ境駅北口方面,細谷戸第４,https://mb.jorudan.co.jp//os/bus/1403/stop/59155.html,35.48272889,139.4864028,
神奈川中央交通,境３０,三ツ境駅北口～細谷戸第５,細谷戸第５方面,三ツ境駅北口方面,細谷戸第３,https://mb.jorudan.co.jp//os/bus/1403/stop/61245.html,35.482805,139.4890169,
神奈川中央交通,境３０,三ツ境駅北口～細谷戸第５,細谷戸第５方面,三ツ境駅北口方面,細谷戸第２,https://mb.jorudan.co.jp//os/bus/1403/stop/59233.html,35.48153083,139.488865,
神奈川中央交通,境３０,三ツ境駅北口～細谷戸第５,細谷戸第５方面,三ツ境駅北口方面,細谷戸第１,https://mb.jorudan.co.jp//os/bus/1403/stop/58253.html,35.48004444,139.4890753,
神奈川中央交通,境３０,三ツ境駅北口～細谷戸第５,細谷戸第５方面,三ツ境駅北口方面,東台,https://mb.jorudan.co.jp//os/bus/1403/stop/58374.html,35.47663389,139.4884678,
神奈川中央交通,境３０,三ツ境駅北口～細谷戸第５,細谷戸第５方面,三ツ境駅北口方面,幼稚園前［横浜市瀬谷区］,https://mb.jorudan.co.jp//os/bus/1403/stop/230075.html,35.47523667,139.4881258,
神奈川中央交通,境３０,三ツ境駅北口～細谷戸第５,細谷戸第５方面,三ツ境駅北口方面,相沢,https://mb.jorudan.co.jp//os/bus/1403/stop/59506.html,35.47321278,139.4884769,
神奈川中央交通,境３０,三ツ境駅北口～細谷戸第５,細谷戸第５方面,三ツ境駅北口方面,相沢原,https://mb.jorudan.co.jp//os/bus/1403/stop/60576.html,35.46916306,139.4924375,
神奈川中央交通,境３０,三ツ境駅北口～細谷戸第５,細谷戸第５方面,三ツ境駅北口方面,上橋,https://mb.jorudan.co.jp//os/bus/1403/stop/59174.html,35.4687075,139.4940172,
神奈川中央交通,境３０,三ツ境駅北口～細谷戸第５,細谷戸第５方面,三ツ境駅北口方面,中丸［横浜市瀬谷区］,https://mb.jorudan.co.jp//os/bus/1403/stop/229664.html,35.47016611,139.4970128,
神奈川中央交通,境３０,三ツ境駅北口～細谷戸第５,細谷戸第５方面,三ツ境駅北口方面,瀬谷警察入口,https://mb.jorudan.co.jp//os/bus/1403/stop/60378.html,35.46879694,139.5001108,
神奈川中央交通,境３０,三ツ境駅北口～細谷戸第５,細谷戸第５方面,三ツ境駅北口方面,三ツ境駅北口,https://mb.jorudan.co.jp//os/bus/1403/stop/61450.html,35.46858861,139.5030119,
神奈川中央交通,多０３,多摩センター駅～豊ヶ丘四丁目,豊ヶ丘四丁目方面,多摩センター駅方面,豊ヶ丘四丁目,https://mb.jorudan.co.jp//os/bus/1403/stop/61487.html,35.61391944,139.4373719,
神奈川中央交通,多０３,多摩センター駅～豊ヶ丘四丁目,豊ヶ丘四丁目方面,多摩センター駅方面,豊ヶ丘六丁目,https://mb.jorudan.co.jp//os/bus/1403/stop/61674.html,35.61184583,139.4379428,
神奈川中央交通,多０３,多摩センター駅～豊ヶ丘四丁目,豊ヶ丘四丁目方面,多摩センター駅方面,恵泉女学園大学入口,https://mb.jorudan.co.jp//os/bus/1403/stop/59877.html,35.61012278,139.4346958,
神奈川中央交通,多０３,多摩センター駅～豊ヶ丘四丁目,豊ヶ丘四丁目方面,多摩センター駅方面,豊ヶ丘五丁目,https://mb.jorudan.co.jp//os/bus/1403/stop/59712.html,35.61237639,139.4321586,
神奈川中央交通,多０３,多摩センター駅～豊ヶ丘四丁目,豊ヶ丘四丁目方面,多摩センター駅方面,落合四丁目,https://mb.jorudan.co.jp//os/bus/1403/stop/59793.html,35.61508,139.4321097,
神奈川中央交通,多０３,多摩センター駅～豊ヶ丘四丁目,豊ヶ丘四丁目方面,多摩センター駅方面,落合三丁目,https://mb.jorudan.co.jp//os/bus/1403/stop/59802.html,35.61853917,139.4329983,
神奈川中央交通,多０３,多摩センター駅～豊ヶ丘四丁目,豊ヶ丘四丁目方面,多摩センター駅方面,豊ヶ丘小学校,https://mb.jorudan.co.jp//os/bus/1403/stop/59982.html,35.62226694,139.4322889,
神奈川中央交通,多０３,多摩センター駅～豊ヶ丘四丁目,豊ヶ丘四丁目方面,多摩センター駅方面,落合東,https://mb.jorudan.co.jp//os/bus/1403/stop/60210.html,35.62554,139.4307239,
神奈川中央交通,多０３,多摩センター駅～豊ヶ丘四丁目,豊ヶ丘四丁目方面,多摩センター駅方面,多摩センター駅,https://mb.jorudan.co.jp//os/bus/1403/stop/58901.html,35.62446667,139.4251731,
神奈川中央交通,多０４,多摩センター駅～鶴川駅,鶴川駅方面,多摩センター駅方面,鶴川駅,https://mb.jorudan.co.jp//os/bus/1403/stop/61573.html,35.58346417,139.4802533,
神奈川中央交通,多０４,多摩センター駅～鶴川駅,鶴川駅方面,多摩センター駅方面,鶴川駅西口,https://mb.jorudan.co.jp//os/bus/1403/stop/60384.html,35.58324194,139.4785697,
神奈川中央交通,多０４,多摩センター駅～鶴川駅,鶴川駅方面,多摩センター駅方面,上能ヶ谷,https://mb.jorudan.co.jp//os/bus/1403/stop/61410.html,35.58368806,139.4758011,
神奈川中央交通,多０４,多摩センター駅～鶴川駅,鶴川駅方面,多摩センター駅方面,金井入口,https://mb.jorudan.co.jp//os/bus/1403/stop/59760.html,35.58496278,139.4722008,
神奈川中央交通,多０４,多摩センター駅～鶴川駅,鶴川駅方面,多摩センター駅方面,下大蔵,https://mb.jorudan.co.jp//os/bus/1403/stop/59091.html,35.58713833,139.4697544,
神奈川中央交通,多０４,多摩センター駅～鶴川駅,鶴川駅方面,多摩センター駅方面,鶴川市民センター入口,https://mb.jorudan.co.jp//os/bus/1403/stop/59988.html,35.58811944,139.4657225,
神奈川中央交通,多０４,多摩センター駅～鶴川駅,鶴川駅方面,多摩センター駅方面,大蔵［鶴川郵便局前］,https://mb.jorudan.co.jp//os/bus/1403/stop/229714.html,35.58859444,139.4626342,
神奈川中央交通,多０４,多摩センター駅～鶴川駅,鶴川駅方面,多摩センター駅方面,井の花,https://mb.jorudan.co.jp//os/bus/1403/stop/59237.html,35.59143083,139.4585928,
神奈川中央交通,多０４,多摩センター駅～鶴川駅,鶴川駅方面,多摩センター駅方面,岩子山,https://mb.jorudan.co.jp//os/bus/1403/stop/60490.html,35.59399278,139.4555147,
神奈川中央交通,多０４,多摩センター駅～鶴川駅,鶴川駅方面,多摩センター駅方面,下堤,https://mb.jorudan.co.jp//os/bus/1403/stop/59143.html,35.59510917,139.4520433,
神奈川中央交通,多０４,多摩センター駅～鶴川駅,鶴川駅方面,多摩センター駅方面,五反田［町田市］,https://mb.jorudan.co.jp//os/bus/1403/stop/230236.html,35.59434944,139.4480406,
神奈川中央交通,多０４,多摩センター駅～鶴川駅,鶴川駅方面,多摩センター駅方面,湯船,https://mb.jorudan.co.jp//os/bus/1403/stop/61475.html,35.59731694,139.44686,
神奈川中央交通,多０４,多摩センター駅～鶴川駅,鶴川駅方面,多摩センター駅方面,別所,https://mb.jorudan.co.jp//os/bus/1403/stop/59714.html,35.60319,139.4450958,
神奈川中央交通,多０４,多摩センター駅～鶴川駅,鶴川駅方面,多摩センター駅方面,中村［町田市小野路町］,https://mb.jorudan.co.jp//os/bus/1403/stop/230060.html,35.60547056,139.4443753,
神奈川中央交通,多０４,多摩センター駅～鶴川駅,鶴川駅方面,多摩センター駅方面,京王多摩車庫前,https://mb.jorudan.co.jp//os/bus/1403/stop/61435.html,35.6107,139.4429158,
神奈川中央交通,多０４,多摩センター駅～鶴川駅,多摩センター駅方面,鶴川駅方面,上能ヶ谷,https://mb.jorudan.co.jp//os/bus/1403/stop/60384.html,35.58324194,139.4785697,
神奈川中央交通,多０４,多摩センター駅～鶴川駅,多摩センター駅方面,鶴川駅方面,金井入口,https://mb.jorudan.co.jp//os/bus/1403/stop/61410.html,35.58368806,139.4758011,
神奈川中央交通,多０４,多摩センター駅～鶴川駅,多摩センター駅方面,鶴川駅方面,下大蔵,https://mb.jorudan.co.jp//os/bus/1403/stop/59760.html,35.58496278,139.4722008,
神奈川中央交通,多０４,多摩センター駅～鶴川駅,多摩センター駅方面,鶴川駅方面,鶴川市民センター入口,https://mb.jorudan.co.jp//os/bus/1403/stop/59091.html,35.58713833,139.4697544,
神奈川中央交通,多０４,多摩センター駅～鶴川駅,多摩センター駅方面,鶴川駅方面,大蔵［鶴川郵便局前］,https://mb.jorudan.co.jp//os/bus/1403/stop/59988.html,35.58811944,139.4657225,
神奈川中央交通,多０４,多摩センター駅～鶴川駅,多摩センター駅方面,鶴川駅方面,井の花,https://mb.jorudan.co.jp//os/bus/1403/stop/229714.html,35.58859444,139.4626342,
神奈川中央交通,多０４,多摩センター駅～鶴川駅,多摩センター駅方面,鶴川駅方面,岩子山,https://mb.jorudan.co.jp//os/bus/1403/stop/59237.html,35.59143083,139.4585928,
神奈川中央交通,多０４,多摩センター駅～鶴川駅,多摩センター駅方面,鶴川駅方面,下堤,https://mb.jorudan.co.jp//os/bus/1403/stop/60490.html,35.59399278,139.4555147,
神奈川中央交通,多０４,多摩センター駅～鶴川駅,多摩センター駅方面,鶴川駅方面,五反田［町田市］,https://mb.jorudan.co.jp//os/bus/1403/stop/59143.html,35.59510917,139.4520433,
神奈川中央交通,多０４,多摩センター駅～鶴川駅,多摩センター駅方面,鶴川駅方面,湯船,https://mb.jorudan.co.jp//os/bus/1403/stop/230236.html,35.59434944,139.4480406,
神奈川中央交通,多０４,多摩センター駅～鶴川駅,多摩センター駅方面,鶴川駅方面,別所,https://mb.jorudan.co.jp//os/bus/1403/stop/61475.html,35.59731694,139.44686,
神奈川中央交通,多０４,多摩センター駅～鶴川駅,多摩センター駅方面,鶴川駅方面,中村［町田市小野路町］,https://mb.jorudan.co.jp//os/bus/1403/stop/59714.html,35.60319,139.4450958,
神奈川中央交通,多０４,多摩センター駅～鶴川駅,多摩センター駅方面,鶴川駅方面,京王多摩車庫前,https://mb.jorudan.co.jp//os/bus/1403/stop/230060.html,35.60547056,139.4443753,
神奈川中央交通,多０４,多摩センター駅～鶴川駅,多摩センター駅方面,鶴川駅方面,豊ヶ丘六丁目,https://mb.jorudan.co.jp//os/bus/1403/stop/61435.html,35.6107,139.4429158,
神奈川中央交通,多０４,多摩センター駅～鶴川駅,多摩センター駅方面,鶴川駅方面,豊ヶ丘四丁目,https://mb.jorudan.co.jp//os/bus/1403/stop/61674.html,35.61184583,139.4379428,
神奈川中央交通,多０４,多摩センター駅～鶴川駅,多摩センター駅方面,鶴川駅方面,豊ヶ丘六丁目,https://mb.jorudan.co.jp//os/bus/1403/stop/61487.html,35.61391944,139.4373719,
神奈川中央交通,多０４,多摩センター駅～鶴川駅,多摩センター駅方面,鶴川駅方面,恵泉女学園大学入口,https://mb.jorudan.co.jp//os/bus/1403/stop/61674.html,35.61184583,139.4379428,
神奈川中央交通,多０４,多摩センター駅～鶴川駅,多摩センター駅方面,鶴川駅方面,豊ヶ丘五丁目,https://mb.jorudan.co.jp//os/bus/1403/stop/59877.html,35.61012278,139.4346958,
神奈川中央交通,多０４,多摩センター駅～鶴川駅,多摩センター駅方面,鶴川駅方面,落合四丁目,https://mb.jorudan.co.jp//os/bus/1403/stop/59712.html,35.61237639,139.4321586,
神奈川中央交通,多０４,多摩センター駅～鶴川駅,多摩センター駅方面,鶴川駅方面,落合三丁目,https://mb.jorudan.co.jp//os/bus/1403/stop/59793.html,35.61508,139.4321097,
神奈川中央交通,多０４,多摩センター駅～鶴川駅,多摩センター駅方面,鶴川駅方面,豊ヶ丘小学校,https://mb.jorudan.co.jp//os/bus/1403/stop/59802.html,35.61853917,139.4329983,
神奈川中央交通,多０４,多摩センター駅～鶴川駅,多摩センター駅方面,鶴川駅方面,落合東,https://mb.jorudan.co.jp//os/bus/1403/stop/59982.html,35.62226694,139.4322889,
神奈川中央交通,多０４,多摩センター駅～鶴川駅,多摩センター駅方面,鶴川駅方面,多摩センター駅,https://mb.jorudan.co.jp//os/bus/1403/stop/60210.html,35.62554,139.4307239,
神奈川中央交通,多６１：鶴牧団地循環,多摩センター駅～富士見通下,多摩センター駅方面,多摩センター駅方面,多摩センター駅,https://mb.jorudan.co.jp//os/bus/1403/stop/58901.html,35.62453,139.4248758,
神奈川中央交通,多６１：鶴牧団地循環,多摩センター駅～富士見通下,多摩センター駅方面,多摩センター駅方面,多摩郵便局,https://mb.jorudan.co.jp//os/bus/1403/stop/61683.html,35.62210778,139.4225328,
神奈川中央交通,多６１：鶴牧団地循環,多摩センター駅～富士見通下,多摩センター駅方面,多摩センター駅方面,鶴牧西公園入口,https://mb.jorudan.co.jp//os/bus/1403/stop/60169.html,35.61900778,139.4222569,
神奈川中央交通,多６１：鶴牧団地循環,多摩センター駅～富士見通下,多摩センター駅方面,多摩センター駅方面,鶴牧三丁目,https://mb.jorudan.co.jp//os/bus/1403/stop/60671.html,35.6162,139.4221133,
神奈川中央交通,多６１：鶴牧団地循環,多摩センター駅～富士見通下,多摩センター駅方面,多摩センター駅方面,奈良原公園,https://mb.jorudan.co.jp//os/bus/1403/stop/60192.html,35.61486278,139.4197528,
神奈川中央交通,多６１：鶴牧団地循環,多摩センター駅～富士見通下,多摩センター駅方面,多摩センター駅方面,南鶴牧小学校,https://mb.jorudan.co.jp//os/bus/1403/stop/59550.html,35.61418667,139.4168258,
神奈川中央交通,多６１：鶴牧団地循環,多摩センター駅～富士見通下,多摩センター駅方面,多摩センター駅方面,鶴牧五丁目,https://mb.jorudan.co.jp//os/bus/1403/stop/59582.html,35.61211278,139.4177278,
神奈川中央交通,多６１：鶴牧団地循環,多摩センター駅～富士見通下,多摩センター駅方面,多摩センター駅方面,南野三丁目,https://mb.jorudan.co.jp//os/bus/1403/stop/59669.html,35.60878194,139.4233489,
神奈川中央交通,多６１：鶴牧団地循環,多摩センター駅～富士見通下,多摩センター駅方面,多摩センター駅方面,落合六丁目,https://mb.jorudan.co.jp//os/bus/1403/stop/58959.html,35.60980389,139.4254981,
神奈川中央交通,多６１：鶴牧団地循環,多摩センター駅～富士見通下,多摩センター駅方面,多摩センター駅方面,鶴牧センター,https://mb.jorudan.co.jp//os/bus/1403/stop/59633.html,35.61181111,139.4239739,
神奈川中央交通,多６１：鶴牧団地循環,多摩センター駅～富士見通下,多摩センター駅方面,多摩センター駅方面,富士見通下,https://mb.jorudan.co.jp//os/bus/1403/stop/59828.html,35.61364722,139.4223731,
神奈川中央交通,多６１：鶴牧団地循環,多摩センター駅～富士見通下,多摩センター駅方面,奈良原公園方面,奈良原公園,https://mb.jorudan.co.jp//os/bus/1403/stop/58901.html,35.62453,139.4248758,
神奈川中央交通,多６１：鶴牧団地循環,多摩センター駅～富士見通下,多摩センター駅方面,奈良原公園方面,南鶴牧小学校,https://mb.jorudan.co.jp//os/bus/1403/stop/61683.html,35.62210778,139.4225328,
神奈川中央交通,多６１：鶴牧団地循環,多摩センター駅～富士見通下,多摩センター駅方面,奈良原公園方面,鶴牧五丁目,https://mb.jorudan.co.jp//os/bus/1403/stop/60169.html,35.61900778,139.4222569,
神奈川中央交通,多６１：鶴牧団地循環,多摩センター駅～富士見通下,多摩センター駅方面,奈良原公園方面,南野三丁目,https://mb.jorudan.co.jp//os/bus/1403/stop/60671.html,35.6162,139.4221133,
神奈川中央交通,多６１：鶴牧団地循環,多摩センター駅～富士見通下,多摩センター駅方面,奈良原公園方面,落合六丁目,https://mb.jorudan.co.jp//os/bus/1403/stop/60192.html,35.61486278,139.4197528,
神奈川中央交通,多６１：鶴牧団地循環,多摩センター駅～富士見通下,多摩センター駅方面,奈良原公園方面,鶴牧センター,https://mb.jorudan.co.jp//os/bus/1403/stop/59550.html,35.61418667,139.4168258,
神奈川中央交通,多６１：鶴牧団地循環,多摩センター駅～富士見通下,多摩センター駅方面,奈良原公園方面,富士見通下,https://mb.jorudan.co.jp//os/bus/1403/stop/59582.html,35.61211278,139.4177278,
神奈川中央交通,多６１：鶴牧団地循環,多摩センター駅～富士見通下,多摩センター駅方面,奈良原公園方面,鶴牧三丁目,https://mb.jorudan.co.jp//os/bus/1403/stop/59669.html,35.60878194,139.4233489,
神奈川中央交通,多６１：鶴牧団地循環,多摩センター駅～富士見通下,多摩センター駅方面,奈良原公園方面,鶴牧西公園入口,https://mb.jorudan.co.jp//os/bus/1403/stop/58959.html,35.60980389,139.4254981,
神奈川中央交通,多６１：鶴牧団地循環,多摩センター駅～富士見通下,多摩センター駅方面,奈良原公園方面,多摩郵便局,https://mb.jorudan.co.jp//os/bus/1403/stop/59633.html,35.61181111,139.4239739,
神奈川中央交通,多６１：鶴牧団地循環,多摩センター駅～富士見通下,多摩センター駅方面,奈良原公園方面,多摩センター駅,https://mb.jorudan.co.jp//os/bus/1403/stop/59828.html,35.61364722,139.4223731,
神奈川中央交通,大１３,相模大野駅南口～上鶴間公民館入口,相模大野駅南口方面,相模大野駅南口方面,相模大野駅南口,https://mb.jorudan.co.jp//os/bus/1403/stop/58664.html,None,None,
神奈川中央交通,大１３,相模大野駅南口～上鶴間公民館入口,相模大野駅南口方面,相模大野駅南口方面,新町中学校入口,https://mb.jorudan.co.jp//os/bus/1403/stop/61088.html,35.52640194,139.4389558,
神奈川中央交通,大１３,相模大野駅南口～上鶴間公民館入口,相模大野駅南口方面,相模大野駅南口方面,上鶴間六丁目,https://mb.jorudan.co.jp//os/bus/1403/stop/60875.html,35.52398833,139.4396614,
神奈川中央交通,大１３,相模大野駅南口～上鶴間公民館入口,相模大野駅南口方面,相模大野駅南口方面,くぬぎ台小学校入口,https://mb.jorudan.co.jp//os/bus/1403/stop/61107.html,35.52252778,139.4408739,
神奈川中央交通,大１３,相模大野駅南口～上鶴間公民館入口,相模大野駅南口方面,相模大野駅南口方面,深堀,https://mb.jorudan.co.jp//os/bus/1403/stop/60476.html,35.52313444,139.4424903,
神奈川中央交通,大１３,相模大野駅南口～上鶴間公民館入口,相模大野駅南口方面,相模大野駅南口方面,若葉団地,https://mb.jorudan.co.jp//os/bus/1403/stop/59183.html,35.52413194,139.4450686,
神奈川中央交通,大１３,相模大野駅南口～上鶴間公民館入口,相模大野駅南口方面,相模大野駅南口方面,中和田［相模原市］,https://mb.jorudan.co.jp//os/bus/1403/stop/229644.html,35.52536833,139.4473031,
神奈川中央交通,大１３,相模大野駅南口～上鶴間公民館入口,相模大野駅南口方面,相模大野駅南口方面,上鶴間本町九丁目,https://mb.jorudan.co.jp//os/bus/1403/stop/58647.html,35.52041111,139.4527503,
神奈川中央交通,大１３,相模大野駅南口～上鶴間公民館入口,相模大野駅南口方面,相模大野駅南口方面,上鶴間高校,https://mb.jorudan.co.jp//os/bus/1403/stop/59462.html,35.52409889,139.45536,
神奈川中央交通,大１３,相模大野駅南口～上鶴間公民館入口,相模大野駅南口方面,相模大野駅南口方面,長嶋神社下,https://mb.jorudan.co.jp//os/bus/1403/stop/61301.html,35.52592972,139.4557067,
神奈川中央交通,大１３,相模大野駅南口～上鶴間公民館入口,相模大野駅南口方面,相模大野駅南口方面,上鶴間高校入口,https://mb.jorudan.co.jp//os/bus/1403/stop/59014.html,35.52695528,139.4528458,
神奈川中央交通,大１３,相模大野駅南口～上鶴間公民館入口,相模大野駅南口方面,相模大野駅南口方面,鶴園小学校前,https://mb.jorudan.co.jp//os/bus/1403/stop/59945.html,35.52867639,139.4504997,
神奈川中央交通,大１３,相模大野駅南口～上鶴間公民館入口,相模大野駅南口方面,相模大野駅南口方面,上鶴間公民館入口,https://mb.jorudan.co.jp//os/bus/1403/stop/58925.html,35.52819222,139.4475911,
神奈川中央交通,大１５,上溝～相模大野駅北口,相模大野駅北口方面,上溝方面,相模大野駅北口,https://mb.jorudan.co.jp//os/bus/1403/stop/59991.html,35.53128,139.4362578,
神奈川中央交通,大１５,上溝～相模大野駅北口,相模大野駅北口方面,上溝方面,グリーンホール前,https://mb.jorudan.co.jp//os/bus/1403/stop/59654.html,35.53497778,139.43463,
神奈川中央交通,大１５,上溝～相模大野駅北口,相模大野駅北口方面,上溝方面,南中前,https://mb.jorudan.co.jp//os/bus/1403/stop/58541.html,35.53709389,139.4299289,
神奈川中央交通,大１５,上溝～相模大野駅北口,相模大野駅北口方面,上溝方面,小沼,https://mb.jorudan.co.jp//os/bus/1403/stop/58171.html,35.53908278,139.4297878,
神奈川中央交通,大１５,上溝～相模大野駅北口,相模大野駅北口方面,上溝方面,団地入口［相模原市］,https://mb.jorudan.co.jp//os/bus/1403/stop/229737.html,35.53820333,139.4266642,
神奈川中央交通,大１５,上溝～相模大野駅北口,相模大野駅北口方面,上溝方面,東通り,https://mb.jorudan.co.jp//os/bus/1403/stop/59185.html,35.53773556,139.4242053,
神奈川中央交通,大１５,上溝～相模大野駅北口,相模大野駅北口方面,上溝方面,大沼小学校前,https://mb.jorudan.co.jp//os/bus/1403/stop/61624.html,35.53765528,139.4193289,
神奈川中央交通,大１５,上溝～相模大野駅北口,相模大野駅北口方面,上溝方面,県立相模原公園前,https://mb.jorudan.co.jp//os/bus/1403/stop/58360.html,35.53305583,139.3853844,
神奈川中央交通,大１５,上溝～相模大野駅北口,相模大野駅北口方面,上溝方面,山の神坂下,https://mb.jorudan.co.jp//os/bus/1403/stop/61528.html,35.52937389,139.3838578,
神奈川中央交通,大１５,上溝～相模大野駅北口,相模大野駅北口方面,上溝方面,下原［相模原市］,https://mb.jorudan.co.jp//os/bus/1403/stop/230026.html,35.52803389,139.3821078,
神奈川中央交通,大１５,上溝～相模大野駅北口,相模大野駅北口方面,上溝方面,新中丸橋,https://mb.jorudan.co.jp//os/bus/1403/stop/59944.html,35.53021278,139.3784894,
神奈川中央交通,大１５,上溝～相模大野駅北口,相模大野駅北口方面,上溝方面,下原中央,https://mb.jorudan.co.jp//os/bus/1403/stop/60002.html,35.53086389,139.3798658,
神奈川中央交通,大１５,上溝～相模大野駅北口,相模大野駅北口方面,上溝方面,下原橋,https://mb.jorudan.co.jp//os/bus/1403/stop/61366.html,35.53233083,139.3797189,
神奈川中央交通,大１５,上溝～相模大野駅北口,相模大野駅北口方面,上溝方面,下中丸,https://mb.jorudan.co.jp//os/bus/1403/stop/60711.html,35.53365472,139.3793828,
神奈川中央交通,大１５,上溝～相模大野駅北口,相模大野駅北口方面,上溝方面,中丸［相模原市］,https://mb.jorudan.co.jp//os/bus/1403/stop/230140.html,35.53540167,139.3782944,
神奈川中央交通,大１５,上溝～相模大野駅北口,相模大野駅北口方面,上溝方面,下古山,https://mb.jorudan.co.jp//os/bus/1403/stop/60286.html,35.538385,139.3775969,
神奈川中央交通,大１５,上溝～相模大野駅北口,相模大野駅北口方面,上溝方面,古山三谷,https://mb.jorudan.co.jp//os/bus/1403/stop/60040.html,35.53991583,139.3759378,
神奈川中央交通,大１５,上溝～相模大野駅北口,相模大野駅北口方面,上溝方面,上溝新開,https://mb.jorudan.co.jp//os/bus/1403/stop/59086.html,35.54151944,139.3751281,
神奈川中央交通,大１５,上溝～相模大野駅北口,相模大野駅北口方面,上溝方面,七曲り下,https://mb.jorudan.co.jp//os/bus/1403/stop/58552.html,35.545445,139.3724589,
神奈川中央交通,大１５,上溝～相模大野駅北口,相模大野駅北口方面,上溝方面,虹吹,https://mb.jorudan.co.jp//os/bus/1403/stop/59791.html,35.54696889,139.3708311,
神奈川中央交通,大１５,上溝～相模大野駅北口,相模大野駅北口方面,上溝方面,田島,https://mb.jorudan.co.jp//os/bus/1403/stop/58326.html,35.54875667,139.3687969,
神奈川中央交通,大１５,上溝～相模大野駅北口,相模大野駅北口方面,上溝方面,亀ヶ池八幡宮前,https://mb.jorudan.co.jp//os/bus/1403/stop/60277.html,35.55074694,139.3657058,
神奈川中央交通,大１５,上溝～相模大野駅北口,相模大野駅北口方面,上溝方面,北相前,https://mb.jorudan.co.jp//os/bus/1403/stop/58134.html,35.55152972,139.3641053,
神奈川中央交通,大１５,上溝～相模大野駅北口,相模大野駅北口方面,上溝方面,田中住宅前,https://mb.jorudan.co.jp//os/bus/1403/stop/58567.html,35.55235972,139.3611483,
神奈川中央交通,大１５,上溝～相模大野駅北口,相模大野駅北口方面,上溝方面,農協下,https://mb.jorudan.co.jp//os/bus/1403/stop/229809.html,35.55196389,139.3600689,
神奈川中央交通,大１５,上溝～相模大野駅北口,相模大野駅北口方面,上溝方面,元町［相模原市］,https://mb.jorudan.co.jp//os/bus/1403/stop/230168.html,35.55410611,139.3589406,
神奈川中央交通,大１５,上溝～相模大野駅北口,相模大野駅北口方面,上溝方面,本町［相模原市］,https://mb.jorudan.co.jp//os/bus/1403/stop/229858.html,35.55612278,139.3581814,
神奈川中央交通,大１５,上溝～相模大野駅北口,相模大野駅北口方面,上溝方面,上溝中央,https://mb.jorudan.co.jp//os/bus/1403/stop/59078.html,35.55716694,139.3598678,
神奈川中央交通,大１５,上溝～相模大野駅北口,相模大野駅北口方面,上溝方面,上溝,https://mb.jorudan.co.jp//os/bus/1403/stop/61226.html,35.55751778,139.3635947,
神奈川中央交通,大１５,上溝～相模大野駅北口,上溝方面,相模大野駅北口方面,南中前,https://mb.jorudan.co.jp//os/bus/1403/stop/59654.html,35.53497778,139.43463,
神奈川中央交通,大１５,上溝～相模大野駅北口,上溝方面,相模大野駅北口方面,小沼,https://mb.jorudan.co.jp//os/bus/1403/stop/58541.html,35.53709389,139.4299289,
神奈川中央交通,大１５,上溝～相模大野駅北口,上溝方面,相模大野駅北口方面,団地入口［相模原市］,https://mb.jorudan.co.jp//os/bus/1403/stop/58171.html,35.53908278,139.4297878,
神奈川中央交通,大１５,上溝～相模大野駅北口,上溝方面,相模大野駅北口方面,東通り,https://mb.jorudan.co.jp//os/bus/1403/stop/229737.html,35.53820333,139.4266642,
神奈川中央交通,大１５,上溝～相模大野駅北口,上溝方面,相模大野駅北口方面,大沼小学校前,https://mb.jorudan.co.jp//os/bus/1403/stop/59185.html,35.53773556,139.4242053,
神奈川中央交通,大１５,上溝～相模大野駅北口,上溝方面,相模大野駅北口方面,大沼,https://mb.jorudan.co.jp//os/bus/1403/stop/61624.html,35.53765528,139.4193289,
神奈川中央交通,大１５,上溝～相模大野駅北口,上溝方面,相模大野駅北口方面,オルガノ前,https://mb.jorudan.co.jp//os/bus/1403/stop/60629.html,35.53765639,139.4167078,
神奈川中央交通,大１５,上溝～相模大野駅北口,上溝方面,相模大野駅北口方面,大野台入口,https://mb.jorudan.co.jp//os/bus/1403/stop/61185.html,35.53756083,139.4115728,
神奈川中央交通,大１５,上溝～相模大野駅北口,上溝方面,相模大野駅北口方面,麻溝台入口,https://mb.jorudan.co.jp//os/bus/1403/stop/60512.html,35.539015,139.4082608,
神奈川中央交通,大１５,上溝～相模大野駅北口,上溝方面,相模大野駅北口方面,麻溝台高校,https://mb.jorudan.co.jp//os/bus/1403/stop/266811.html,35.53756833,139.4030814,
神奈川中央交通,大１５,上溝～相模大野駅北口,上溝方面,相模大野駅北口方面,北里大学病院・北里大学,https://mb.jorudan.co.jp//os/bus/1403/stop/58486.html,35.53707139,139.3976456,
神奈川中央交通,大１５,上溝～相模大野駅北口,上溝方面,相模大野駅北口方面,友愛病院前,https://mb.jorudan.co.jp//os/bus/1403/stop/61207.html,35.53762806,139.3943806,
神奈川中央交通,大１５,上溝～相模大野駅北口,上溝方面,相模大野駅北口方面,県立相模原公園前,https://mb.jorudan.co.jp//os/bus/1403/stop/59865.html,35.53668583,139.3920958,
神奈川中央交通,大１５,上溝～相模大野駅北口,上溝方面,相模大野駅北口方面,山の神坂下,https://mb.jorudan.co.jp//os/bus/1403/stop/58360.html,35.53305583,139.3853844,
神奈川中央交通,大１５,上溝～相模大野駅北口,上溝方面,相模大野駅北口方面,下原［相模原市］,https://mb.jorudan.co.jp//os/bus/1403/stop/61528.html,35.52937389,139.3838578,
神奈川中央交通,大１５,上溝～相模大野駅北口,上溝方面,相模大野駅北口方面,原当麻駅東,https://mb.jorudan.co.jp//os/bus/1403/stop/230026.html,35.52803389,139.3821078,
神奈川中央交通,大１５,上溝～相模大野駅北口,上溝方面,相模大野駅北口方面,新中丸橋,https://mb.jorudan.co.jp//os/bus/1403/stop/58847.html,35.52945111,139.3754831,
神奈川中央交通,大１５,上溝～相模大野駅北口,上溝方面,相模大野駅北口方面,下原中央,https://mb.jorudan.co.jp//os/bus/1403/stop/59944.html,35.53021278,139.3784894,
神奈川中央交通,大１５,上溝～相模大野駅北口,上溝方面,相模大野駅北口方面,下原橋,https://mb.jorudan.co.jp//os/bus/1403/stop/60002.html,35.53086389,139.3798658,
神奈川中央交通,大１５,上溝～相模大野駅北口,上溝方面,相模大野駅北口方面,下中丸,https://mb.jorudan.co.jp//os/bus/1403/stop/61366.html,35.53233083,139.3797189,
神奈川中央交通,大１５,上溝～相模大野駅北口,上溝方面,相模大野駅北口方面,中丸［相模原市］,https://mb.jorudan.co.jp//os/bus/1403/stop/60711.html,35.53365472,139.3793828,
神奈川中央交通,大１５,上溝～相模大野駅北口,上溝方面,相模大野駅北口方面,下古山,https://mb.jorudan.co.jp//os/bus/1403/stop/230140.html,35.53540167,139.3782944,
神奈川中央交通,大１５,上溝～相模大野駅北口,上溝方面,相模大野駅北口方面,古山三谷,https://mb.jorudan.co.jp//os/bus/1403/stop/60286.html,35.538385,139.3775969,
神奈川中央交通,大１５,上溝～相模大野駅北口,上溝方面,相模大野駅北口方面,上溝新開,https://mb.jorudan.co.jp//os/bus/1403/stop/60040.html,35.53991583,139.3759378,
神奈川中央交通,大１５,上溝～相模大野駅北口,上溝方面,相模大野駅北口方面,七曲り下,https://mb.jorudan.co.jp//os/bus/1403/stop/59086.html,35.54151944,139.3751281,
神奈川中央交通,大１５,上溝～相模大野駅北口,上溝方面,相模大野駅北口方面,虹吹,https://mb.jorudan.co.jp//os/bus/1403/stop/58552.html,35.545445,139.3724589,
神奈川中央交通,大１５,上溝～相模大野駅北口,上溝方面,相模大野駅北口方面,田島,https://mb.jorudan.co.jp//os/bus/1403/stop/59791.html,35.54696889,139.3708311,
神奈川中央交通,大１５,上溝～相模大野駅北口,上溝方面,相模大野駅北口方面,亀ヶ池八幡宮前,https://mb.jorudan.co.jp//os/bus/1403/stop/58326.html,35.54875667,139.3687969,
神奈川中央交通,大１５,上溝～相模大野駅北口,上溝方面,相模大野駅北口方面,北相前,https://mb.jorudan.co.jp//os/bus/1403/stop/60277.html,35.55074694,139.3657058,
神奈川中央交通,大１５,上溝～相模大野駅北口,上溝方面,相模大野駅北口方面,田中住宅前,https://mb.jorudan.co.jp//os/bus/1403/stop/58134.html,35.55152972,139.3641053,
神奈川中央交通,大１５,上溝～相模大野駅北口,上溝方面,相模大野駅北口方面,農協下,https://mb.jorudan.co.jp//os/bus/1403/stop/58567.html,35.55235972,139.3611483,
神奈川中央交通,大１５,上溝～相模大野駅北口,上溝方面,相模大野駅北口方面,元町［相模原市］,https://mb.jorudan.co.jp//os/bus/1403/stop/229809.html,35.55196389,139.3600689,
神奈川中央交通,大１５,上溝～相模大野駅北口,上溝方面,相模大野駅北口方面,本町［相模原市］,https://mb.jorudan.co.jp//os/bus/1403/stop/230168.html,35.55410611,139.3589406,
神奈川中央交通,大１５,上溝～相模大野駅北口,上溝方面,相模大野駅北口方面,上溝中央,https://mb.jorudan.co.jp//os/bus/1403/stop/229858.html,35.55612278,139.3581814,
神奈川中央交通,大１５,上溝～相模大野駅北口,上溝方面,相模大野駅北口方面,上溝,https://mb.jorudan.co.jp//os/bus/1403/stop/59078.html,35.55716694,139.3598678,
神奈川中央交通,大２５,光が丘一丁目～相模大野駅北口,相模大野駅北口方面,光が丘一丁目方面,光が丘一丁目,https://mb.jorudan.co.jp//os/bus/1403/stop/58717.html,35.55682278,139.37508,
神奈川中央交通,大２５,光が丘一丁目～相模大野駅北口,相模大野駅北口方面,光が丘一丁目方面,光が丘小学校前,https://mb.jorudan.co.jp//os/bus/1403/stop/61134.html,35.55509222,139.3756456,
神奈川中央交通,大２５,光が丘一丁目～相模大野駅北口,相模大野駅北口方面,光が丘一丁目方面,光が丘大通り,https://mb.jorudan.co.jp//os/bus/1403/stop/59998.html,35.55329889,139.3766278,
神奈川中央交通,大２５,光が丘一丁目～相模大野駅北口,相模大野駅北口方面,光が丘一丁目方面,光が丘三丁目,https://mb.jorudan.co.jp//os/bus/1403/stop/60886.html,35.55086028,139.3781647,
神奈川中央交通,大２５,光が丘一丁目～相模大野駅北口,相模大野駅北口方面,光が丘一丁目方面,緑が丘一丁目［相模原市］,https://mb.jorudan.co.jp//os/bus/1403/stop/230153.html,35.54861722,139.3792472,
神奈川中央交通,大２５,光が丘一丁目～相模大野駅北口,相模大野駅北口方面,光が丘一丁目方面,陽光台六丁目,https://mb.jorudan.co.jp//os/bus/1403/stop/60975.html,35.54705056,139.3803058,
神奈川中央交通,大２５,光が丘一丁目～相模大野駅北口,相模大野駅北口方面,光が丘一丁目方面,相模原浄水場,https://mb.jorudan.co.jp//os/bus/1403/stop/61460.html,35.541795,139.3831547,
神奈川中央交通,大２５,光が丘一丁目～相模大野駅北口,相模大野駅北口方面,光が丘一丁目方面,麻溝車庫,https://mb.jorudan.co.jp//os/bus/1403/stop/58473.html,35.53860694,139.387245,
神奈川中央交通,大２５,光が丘一丁目～相模大野駅北口,相模大野駅北口方面,光が丘一丁目方面,北里大学病院・北里大学,https://mb.jorudan.co.jp//os/bus/1403/stop/61207.html,35.53757139,139.3938153,
神奈川中央交通,大２５,光が丘一丁目～相模大野駅北口,相模大野駅北口方面,光が丘一丁目方面,相模大野駅北口,https://mb.jorudan.co.jp//os/bus/1403/stop/59991.html,None,None,
神奈川中央交通,大５３,相模大野駅北口～北里大学病院・北里大学,北里大学病院・北里大学方面,相模大野駅北口方面,相模大野駅北口,https://mb.jorudan.co.jp//os/bus/1403/stop/59654.html,35.53497778,139.43463,
神奈川中央交通,大５４,相模大野駅北口～みゆき台団地,みゆき台団地方面,相模大野駅北口方面,みゆき台団地,https://mb.jorudan.co.jp//os/bus/1403/stop/61129.html,35.52717278,139.4182997,
神奈川中央交通,大５４,相模大野駅北口～みゆき台団地,みゆき台団地方面,相模大野駅北口方面,御園二丁目,https://mb.jorudan.co.jp//os/bus/1403/stop/60243.html,35.52879083,139.4205619,
神奈川中央交通,大５４,相模大野駅北口～みゆき台団地,みゆき台団地方面,相模大野駅北口方面,上原団地,https://mb.jorudan.co.jp//os/bus/1403/stop/59404.html,35.53152944,139.4239394,
神奈川中央交通,大５４,相模大野駅北口～みゆき台団地,みゆき台団地方面,相模大野駅北口方面,谷口台小学校前,https://mb.jorudan.co.jp//os/bus/1403/stop/58657.html,35.53164139,139.4268206,
神奈川中央交通,大５４,相模大野駅北口～みゆき台団地,みゆき台団地方面,相模大野駅北口方面,相模女子大前,https://mb.jorudan.co.jp//os/bus/1403/stop/61081.html,35.53200278,139.4300319,
神奈川中央交通,大５４,相模大野駅北口～みゆき台団地,みゆき台団地方面,相模大野駅北口方面,相模大野駅北口,https://mb.jorudan.co.jp//os/bus/1403/stop/59991.html,35.53158111,139.4365772,
神奈川中央交通,大５５,相模大野駅北口～麻溝車庫,麻溝車庫方面,相模大野駅北口方面,御園五丁目,https://mb.jorudan.co.jp//os/bus/1403/stop/60021.html,35.52523861,139.4150658,
神奈川中央交通,大５５,相模大野駅北口～麻溝車庫,麻溝車庫方面,相模大野駅北口方面,桜台［相模原市］,https://mb.jorudan.co.jp//os/bus/1403/stop/229641.html,35.52409667,139.4090203,
神奈川中央交通,大５５,相模大野駅北口～麻溝車庫,麻溝車庫方面,相模大野駅北口方面,水道路［相模原市］,https://mb.jorudan.co.jp//os/bus/1403/stop/229575.html,35.52478417,139.4072842,
神奈川中央交通,大５５,相模大野駅北口～麻溝車庫,麻溝車庫方面,相模大野駅北口方面,麻溝台,https://mb.jorudan.co.jp//os/bus/1403/stop/58677.html,35.52735694,139.4063644,
神奈川中央交通,大５５,相模大野駅北口～麻溝車庫,麻溝車庫方面,相模大野駅北口方面,麻溝台中学校入口,https://mb.jorudan.co.jp//os/bus/1403/stop/58267.html,35.53091917,139.4058292,
神奈川中央交通,大５５,相模大野駅北口～麻溝車庫,麻溝車庫方面,相模大野駅北口方面,北里大学病院・北里大学,https://mb.jorudan.co.jp//os/bus/1403/stop/61207.html,35.53766361,139.3946458,
神奈川中央交通,大５５,相模大野駅北口～麻溝車庫,麻溝車庫方面,相模大野駅北口方面,麻溝車庫,https://mb.jorudan.co.jp//os/bus/1403/stop/58473.html,None,None,
神奈川中央交通,大５８,相模大野駅北口～さがみ緑風園前,さがみ緑風園前方面,相模大野駅北口方面,さがみ緑風園前,https://mb.jorudan.co.jp//os/bus/1403/stop/61476.html,None,None,
神奈川中央交通,大５９,相模大野駅北口～北里大学病院・北里大学,相模大野駅北口方面,北里大学病院・北里大学方面,双葉入口,https://mb.jorudan.co.jp//os/bus/1403/stop/229641.html,35.52409667,139.4090203,
神奈川中央交通,大５９,相模大野駅北口～北里大学病院・北里大学,相模大野駅北口方面,北里大学病院・北里大学方面,御園五丁目,https://mb.jorudan.co.jp//os/bus/1403/stop/61665.html,35.52459083,139.4130378,
神奈川中央交通,大５９,相模大野駅北口～北里大学病院・北里大学,相模大野駅北口方面,北里大学病院・北里大学方面,みゆき台団地,https://mb.jorudan.co.jp//os/bus/1403/stop/60021.html,35.52523861,139.4150658,
神奈川中央交通,大５９,相模大野駅北口～北里大学病院・北里大学,相模大野駅北口方面,北里大学病院・北里大学方面,御園二丁目,https://mb.jorudan.co.jp//os/bus/1403/stop/61129.html,35.52717278,139.4182997,
神奈川中央交通,大５９,相模大野駅北口～北里大学病院・北里大学,相模大野駅北口方面,北里大学病院・北里大学方面,上原団地,https://mb.jorudan.co.jp//os/bus/1403/stop/60243.html,35.52879083,139.4205619,
神奈川中央交通,大５９,相模大野駅北口～北里大学病院・北里大学,相模大野駅北口方面,北里大学病院・北里大学方面,谷口台小学校前,https://mb.jorudan.co.jp//os/bus/1403/stop/59404.html,35.53152944,139.4239394,
神奈川中央交通,大５９,相模大野駅北口～北里大学病院・北里大学,相模大野駅北口方面,北里大学病院・北里大学方面,相模女子大前,https://mb.jorudan.co.jp//os/bus/1403/stop/58657.html,35.53164139,139.4268206,
神奈川中央交通,大５９,相模大野駅北口～北里大学病院・北里大学,相模大野駅北口方面,北里大学病院・北里大学方面,相模大野駅北口,https://mb.jorudan.co.jp//os/bus/1403/stop/61081.html,35.53200278,139.4300319,
神奈川中央交通,大６０,グリーンホール前～女子美術大学,相模大野駅北口方面,女子美術大学方面,グリーンホール前,https://mb.jorudan.co.jp//os/bus/1403/stop/61081.html,35.53200278,139.4300319,
神奈川中央交通,学０１,東海大学前駅～オレンジヒル,東海大学前駅方面,東海大学前駅方面,東海大学前駅,https://mb.jorudan.co.jp//os/bus/1403/stop/60069.html,None,None,
神奈川中央交通,学０１,東海大学前駅～オレンジヒル,東海大学前駅方面,東海大学前駅方面,北矢名郵便局前,https://mb.jorudan.co.jp//os/bus/1403/stop/59338.html,35.37123861,139.2676289,
神奈川中央交通,学０１,東海大学前駅～オレンジヒル,東海大学前駅方面,東海大学前駅方面,井戸窪,https://mb.jorudan.co.jp//os/bus/1403/stop/61833.html,35.36993056,139.26565,
神奈川中央交通,学０１,東海大学前駅～オレンジヒル,東海大学前駅方面,東海大学前駅方面,小南,https://mb.jorudan.co.jp//os/bus/1403/stop/61190.html,35.36844111,139.2627981,
神奈川中央交通,学０１,東海大学前駅～オレンジヒル,東海大学前駅方面,東海大学前駅方面,根古屋入口,https://mb.jorudan.co.jp//os/bus/1403/stop/58865.html,35.36777194,139.2614139,
神奈川中央交通,学０１,東海大学前駅～オレンジヒル,東海大学前駅方面,東海大学前駅方面,山王下［秦野市］,https://mb.jorudan.co.jp//os/bus/1403/stop/229560.html,35.36746889,139.2584161,
神奈川中央交通,学０１,東海大学前駅～オレンジヒル,東海大学前駅方面,東海大学前駅方面,宮田,https://mb.jorudan.co.jp//os/bus/1403/stop/60670.html,35.36716083,139.2565697,
神奈川中央交通,学０１,東海大学前駅～オレンジヒル,東海大学前駅方面,東海大学前駅方面,瓜生野,https://mb.jorudan.co.jp//os/bus/1403/stop/60227.html,35.36933778,139.2539278,
神奈川中央交通,学０１,東海大学前駅～オレンジヒル,東海大学前駅方面,東海大学前駅方面,町内会館前［秦野市］,https://mb.jorudan.co.jp//os/bus/1403/stop/229677.html,35.37029,139.2520272,
神奈川中央交通,学０１,東海大学前駅～オレンジヒル,東海大学前駅方面,東海大学前駅方面,蓑輪［秦野市］,https://mb.jorudan.co.jp//os/bus/1403/stop/229985.html,35.36759556,139.2519981,
神奈川中央交通,学０１,東海大学前駅～オレンジヒル,東海大学前駅方面,東海大学前駅方面,オレンジヒル,https://mb.jorudan.co.jp//os/bus/1403/stop/59679.html,35.36709611,139.2535889,
神奈川中央交通,学０２,東海大学前駅～オレンジヒル,オレンジヒル方面,東海大学前駅方面,東海大学前駅,https://mb.jorudan.co.jp//os/bus/1403/stop/60069.html,35.37227889,139.2699331,
神奈川中央交通,学０２,東海大学前駅～オレンジヒル,オレンジヒル方面,東海大学前駅方面,オレンジヒル,https://mb.jorudan.co.jp//os/bus/1403/stop/59679.html,None,None,
神奈川中央交通,学０４,下大槻団地～東海大学前駅南口,東海大学前駅南口方面,下大槻団地方面,東海大学前駅南口,https://mb.jorudan.co.jp//os/bus/1403/stop/61486.html,35.37292556,139.2719058,
神奈川中央交通,学０４,下大槻団地～東海大学前駅南口,東海大学前駅南口方面,下大槻団地方面,東海大学前駅入口,https://mb.jorudan.co.jp//os/bus/1403/stop/61358.html,35.37160389,139.2738619,
神奈川中央交通,学０４,下大槻団地～東海大学前駅南口,東海大学前駅南口方面,下大槻団地方面,東海大学北門,https://mb.jorudan.co.jp//os/bus/1403/stop/60882.html,35.36644694,139.2727128,
神奈川中央交通,学０４,下大槻団地～東海大学前駅南口,東海大学前駅南口方面,下大槻団地方面,学校入口［大根小・中］,https://mb.jorudan.co.jp//os/bus/1403/stop/229975.html,35.36550611,139.2701675,
神奈川中央交通,学０４,下大槻団地～東海大学前駅南口,東海大学前駅南口方面,下大槻団地方面,矢名,https://mb.jorudan.co.jp//os/bus/1403/stop/59610.html,35.36375278,139.2665042,
神奈川中央交通,学０４,下大槻団地～東海大学前駅南口,東海大学前駅南口方面,下大槻団地方面,宿矢名,https://mb.jorudan.co.jp//os/bus/1403/stop/59305.html,35.36257472,139.2622411,
神奈川中央交通,学０４,下大槻団地～東海大学前駅南口,東海大学前駅南口方面,下大槻団地方面,広畑ふれあいプラザ前,https://mb.jorudan.co.jp//os/bus/1403/stop/58798.html,35.360545,139.2623197,
神奈川中央交通,学０４,下大槻団地～東海大学前駅南口,東海大学前駅南口方面,下大槻団地方面,下大槻団地,https://mb.jorudan.co.jp//os/bus/1403/stop/58221.html,35.36027778,139.2637289,
神奈川中央交通,小山田桜台～多摩南部地域病院,小山田桜台～多摩南部地域病院,多摩南部地域病院方面,小山田桜台方面,多摩南部地域病院,https://mb.jorudan.co.jp//os/bus/1403/stop/208570.html,35.62240333,139.4148403,
神奈川中央交通,小山田桜台～多摩南部地域病院,小山田桜台～多摩南部地域病院,多摩南部地域病院方面,小山田桜台方面,唐木田駅東,https://mb.jorudan.co.jp//os/bus/1403/stop/208584.html,35.61594028,139.4119367,
神奈川中央交通,小山田桜台～多摩南部地域病院,小山田桜台～多摩南部地域病院,多摩南部地域病院方面,小山田桜台方面,山中集会所,https://mb.jorudan.co.jp//os/bus/1403/stop/208577.html,35.6078425,139.4080819,
神奈川中央交通,小山田桜台～多摩南部地域病院,小山田桜台～多摩南部地域病院,多摩南部地域病院方面,小山田桜台方面,大善倶楽部,https://mb.jorudan.co.jp//os/bus/1403/stop/208572.html,35.60170694,139.40845,
神奈川中央交通,小山田桜台～多摩南部地域病院,小山田桜台～多摩南部地域病院,多摩南部地域病院方面,小山田桜台方面,山の端,https://mb.jorudan.co.jp//os/bus/1403/stop/58762.html,35.59695889,139.4087908,
神奈川中央交通,小山田桜台～多摩南部地域病院,小山田桜台～多摩南部地域病院,多摩南部地域病院方面,小山田桜台方面,大泉寺,https://mb.jorudan.co.jp//os/bus/1403/stop/59379.html,35.59637972,139.4106056,
神奈川中央交通,小山田桜台～多摩南部地域病院,小山田桜台～多摩南部地域病院,多摩南部地域病院方面,小山田桜台方面,清住平,https://mb.jorudan.co.jp//os/bus/1403/stop/58776.html,35.592835,139.4104739,
神奈川中央交通,小山田桜台～多摩南部地域病院,小山田桜台～多摩南部地域病院,多摩南部地域病院方面,小山田桜台方面,桜台入口,https://mb.jorudan.co.jp//os/bus/1403/stop/61222.html,35.58749083,139.4063569,
神奈川中央交通,小山田桜台～多摩南部地域病院,小山田桜台～多摩南部地域病院,多摩南部地域病院方面,小山田桜台方面,小山田桜台,https://mb.jorudan.co.jp//os/bus/1403/stop/60922.html,35.58816889,139.4022417,
神奈川中央交通,小山田桜台～多摩南部地域病院,小山田桜台～多摩南部地域病院,小山田桜台方面,多摩南部地域病院方面,小山田桜台,https://mb.jorudan.co.jp//os/bus/1403/stop/61222.html,35.58749083,139.4063569,
神奈川中央交通,小０２,小田急相模原駅～南林間駅,南林間駅方面,小田急相模原駅方面,南林間駅,https://mb.jorudan.co.jp//os/bus/1403/stop/59464.html,35.49567556,139.4475508,
神奈川中央交通,小０２,小田急相模原駅～南林間駅,南林間駅方面,小田急相模原駅方面,小松原二丁目,https://mb.jorudan.co.jp//os/bus/1403/stop/59197.html,35.49160194,139.4313228,
神奈川中央交通,小０２,小田急相模原駅～南林間駅,南林間駅方面,小田急相模原駅方面,小松原,https://mb.jorudan.co.jp//os/bus/1403/stop/61443.html,35.49668417,139.4288467,
神奈川中央交通,小０２,小田急相模原駅～南林間駅,南林間駅方面,小田急相模原駅方面,小松原入口,https://mb.jorudan.co.jp//os/bus/1403/stop/58397.html,35.50249333,139.4280286,
神奈川中央交通,小０２,小田急相模原駅～南林間駅,南林間駅方面,小田急相模原駅方面,相模が丘,https://mb.jorudan.co.jp//os/bus/1403/stop/58520.html,35.50465167,139.4267869,
神奈川中央交通,小０２,小田急相模原駅～南林間駅,南林間駅方面,小田急相模原駅方面,マルマン工場前,https://mb.jorudan.co.jp//os/bus/1403/stop/61116.html,35.50625306,139.4258858,
神奈川中央交通,小０２,小田急相模原駅～南林間駅,南林間駅方面,小田急相模原駅方面,小田急住宅前［座間市］,https://mb.jorudan.co.jp//os/bus/1403/stop/230044.html,35.50807389,139.424755,
神奈川中央交通,小０２,小田急相模原駅～南林間駅,南林間駅方面,小田急相模原駅方面,相模台,https://mb.jorudan.co.jp//os/bus/1403/stop/59578.html,35.51236,139.4224428,
神奈川中央交通,小０２,小田急相模原駅～南林間駅,南林間駅方面,小田急相模原駅方面,小田急相模原駅,https://mb.jorudan.co.jp//os/bus/1403/stop/61392.html,35.51568278,139.4219411,
神奈川中央交通,小０３,小田急相模原駅～南林間駅,南林間駅方面,小田急相模原駅方面,イオンモール座間,https://mb.jorudan.co.jp//os/bus/1403/stop/224157.html,35.50172778,139.4251928,
神奈川中央交通,小０３,小田急相模原駅～南林間駅,南林間駅方面,小田急相模原駅方面,小松原入口［イオン側］,https://mb.jorudan.co.jp//os/bus/1403/stop/224154.html,35.50211806,139.4261025,
神奈川中央交通,小０４,小田急相模原駅～北里大学病院・北里大学,小田急相模原駅方面,北里大学病院・北里大学方面,第一住宅［相模原市］,https://mb.jorudan.co.jp//os/bus/1403/stop/229641.html,35.52409667,139.4090203,
神奈川中央交通,小０４,小田急相模原駅～北里大学病院・北里大学,小田急相模原駅方面,北里大学病院・北里大学方面,国立相模原病院,https://mb.jorudan.co.jp//os/bus/1403/stop/229982.html,35.52303944,139.4120647,
神奈川中央交通,小０４,小田急相模原駅～北里大学病院・北里大学,小田急相模原駅方面,北里大学病院・北里大学方面,相模台まちづくりセンター前,https://mb.jorudan.co.jp//os/bus/1403/stop/59531.html,35.52026722,139.4125217,
神奈川中央交通,小０４,小田急相模原駅～北里大学病院・北里大学,小田急相模原駅方面,北里大学病院・北里大学方面,ハウス南門前,https://mb.jorudan.co.jp//os/bus/1403/stop/60414.html,35.51906778,139.41532,
神奈川中央交通,小０４,小田急相模原駅～北里大学病院・北里大学,小田急相模原駅方面,北里大学病院・北里大学方面,鶴ヶ丘団地前,https://mb.jorudan.co.jp//os/bus/1403/stop/58323.html,35.51901583,139.4190658,
神奈川中央交通,小０４,小田急相模原駅～北里大学病院・北里大学,小田急相模原駅方面,北里大学病院・北里大学方面,二宮神社前,https://mb.jorudan.co.jp//os/bus/1403/stop/59315.html,35.51945528,139.4213439,
神奈川中央交通,小０４,小田急相模原駅～北里大学病院・北里大学,小田急相模原駅方面,北里大学病院・北里大学方面,小田急相模原駅,https://mb.jorudan.co.jp//os/bus/1403/stop/58491.html,35.51738778,139.4225753,
神奈川中央交通,小０６,小田急相模原駅～相模大野駅北口,相模大野駅北口方面,小田急相模原駅方面,相模大野駅北口,https://mb.jorudan.co.jp//os/bus/1403/stop/59991.html,35.53176333,139.4367397,
神奈川中央交通,小０６,小田急相模原駅～相模大野駅北口,相模大野駅北口方面,小田急相模原駅方面,高相合同庁舎前,https://mb.jorudan.co.jp//os/bus/1403/stop/60606.html,35.53002556,139.4306689,
神奈川中央交通,小０６,小田急相模原駅～相模大野駅北口,相模大野駅北口方面,小田急相模原駅方面,旭町［相模原市］,https://mb.jorudan.co.jp//os/bus/1403/stop/229614.html,35.52768778,139.4280675,
神奈川中央交通,小０６,小田急相模原駅～相模大野駅北口,相模大野駅北口方面,小田急相模原駅方面,豊町,https://mb.jorudan.co.jp//os/bus/1403/stop/61569.html,35.52508306,139.4262747,
神奈川中央交通,小０６,小田急相模原駅～相模大野駅北口,相模大野駅北口方面,小田急相模原駅方面,鶴ヶ丘［相模原市］,https://mb.jorudan.co.jp//os/bus/1403/stop/229546.html,35.52099167,139.4242925,
神奈川中央交通,小１１,小田急相模原駅～相武台グリーンパーク,相武台グリーンパーク方面,小田急相模原駅方面,新磯野五丁目,https://mb.jorudan.co.jp//os/bus/1403/stop/59561.html,35.51142389,139.4039869,
神奈川中央交通,小１１,小田急相模原駅～相武台グリーンパーク,相武台グリーンパーク方面,小田急相模原駅方面,相模原青陵高校前,https://mb.jorudan.co.jp//os/bus/1403/stop/60423.html,35.51408472,139.4027047,
神奈川中央交通,小１１,小田急相模原駅～相武台グリーンパーク,相武台グリーンパーク方面,小田急相模原駅方面,新磯野,https://mb.jorudan.co.jp//os/bus/1403/stop/61095.html,35.5151975,139.4048053,
神奈川中央交通,小１１,小田急相模原駅～相武台グリーンパーク,相武台グリーンパーク方面,小田急相模原駅方面,相模台五丁目,https://mb.jorudan.co.jp//os/bus/1403/stop/60207.html,35.51635778,139.4077619,
神奈川中央交通,小１１,小田急相模原駅～相武台グリーンパーク,相武台グリーンパーク方面,小田急相模原駅方面,相模台団地,https://mb.jorudan.co.jp//os/bus/1403/stop/60614.html,35.51693722,139.4103883,
神奈川中央交通,小１１,小田急相模原駅～相武台グリーンパーク,相武台グリーンパーク方面,小田急相模原駅方面,国立病院入口,https://mb.jorudan.co.jp//os/bus/1403/stop/229959.html,35.51762278,139.4118308,
神奈川中央交通,峰０２,鶴ヶ峰駅～十日市場駅,十日市場駅方面,鶴ヶ峰駅方面,上川井町,https://mb.jorudan.co.jp//os/bus/1403/stop/58421.html,35.49691694,139.5022328,
神奈川中央交通,峰０２,鶴ヶ峰駅～十日市場駅,十日市場駅方面,鶴ヶ峰駅方面,長源寺前,https://mb.jorudan.co.jp//os/bus/1403/stop/58516.html,35.49579583,139.5048508,
神奈川中央交通,峰０２,鶴ヶ峰駅～十日市場駅,十日市場駅方面,鶴ヶ峰駅方面,宮の下［横浜市旭区］,https://mb.jorudan.co.jp//os/bus/1403/stop/230232.html,35.49384611,139.5088431,
神奈川中央交通,峰０２,鶴ヶ峰駅～十日市場駅,十日市場駅方面,鶴ヶ峰駅方面,福泉寺前,https://mb.jorudan.co.jp//os/bus/1403/stop/59685.html,35.49198,139.5125919,
神奈川中央交通,峰０２,鶴ヶ峰駅～十日市場駅,十日市場駅方面,鶴ヶ峰駅方面,鶴ヶ峰駅,https://mb.jorudan.co.jp//os/bus/1403/stop/60237.html,35.47595667,139.5476119,
神奈川中央交通,峰０３,中山車庫～鶴ヶ峰駅,鶴ヶ峰駅方面,中山車庫方面,鶴ヶ峰駅,https://mb.jorudan.co.jp//os/bus/1403/stop/60237.html,35.47610444,139.5476356,
神奈川中央交通,峰０３,中山車庫～鶴ヶ峰駅,鶴ヶ峰駅方面,中山車庫方面,白根町,https://mb.jorudan.co.jp//os/bus/1403/stop/60177.html,35.478355,139.5488839,
神奈川中央交通,峰０３,中山車庫～鶴ヶ峰駅,鶴ヶ峰駅方面,中山車庫方面,白根不動入口,https://mb.jorudan.co.jp//os/bus/1403/stop/58702.html,35.47893556,139.5526567,
神奈川中央交通,峰０３,中山車庫～鶴ヶ峰駅,鶴ヶ峰駅方面,中山車庫方面,下白根橋,https://mb.jorudan.co.jp//os/bus/1403/stop/60281.html,35.4794925,139.5588072,
神奈川中央交通,峰０３,中山車庫～鶴ヶ峰駅,鶴ヶ峰駅方面,中山車庫方面,旭環境センター前,https://mb.jorudan.co.jp//os/bus/1403/stop/60603.html,35.48232222,139.5568633,
